{"business_id": "KMgP8B4icZTdlOEIv4Sg5g", "name": "G\u00fcerr\u00edn", "latitude": -34.604085, "longitude": -58.385987, "address": "Av. Corrientes 1368"}
{"business_id": "8-_hNCqGVogrxgYUYLdvJQ", "name": "Don Julio", "latitude": -34.586268525638, "longitude": -58.424394117332, "address": "Guatemala 4691"}
{"business_id": "NWBTN4USPQVUv5ZO3E-kQw", "name": "Burger Joint", "latitude": -34.5875580622848, "longitude": -58.4286253336479, "address": "Jorge Luis Borges 1766"}
{"business_id": "F2cgb2VMFPWvsZjU0zlx7g", "name": "La Cabrera", "latitude": -34.5893586903274, "longitude": -58.433065, "address": "Jos\u00e9 Antonio Cabrera 5099"}
{"business_id": "Kz44N3OTe2L6eQEjJm90YA", "name": "Nola", "latitude": -34.593628590408, "longitude": -58.4249545040873, "address": "Gorriti 4389"}
{"business_id": "BurDARYnceWFmmZAA_sIJw", "name": "La Carnicer\u00eda", "latitude": -34.5829155, "longitude": -58.4236691, "address": "Thames 2317"}
{"business_id": "FLJHCkqCzCqfZkhtltDUQw", "name": "Per\u00f3n Per\u00f3n RestoBar", "latitude": -34.578512, "longitude": -58.4337071, "address": "\u00c1ngel Justiniano Carranza 2225"}
{"business_id": "mw74bjq7QpBvalvrFNbR5w", "name": "Florer\u00eda Atl\u00e1ntico", "latitude": -34.5915206207441, "longitude": -58.3797074325409, "address": "Arroyo 872"}
{"business_id": "XQMjpmft9bilXUyBGlztqA", "name": "Ninina", "latitude": -34.5912701346991, "longitude": -58.4283952787518, "address": "Gorriti 4738"}
{"business_id": "3gMXHsLm-ib3IGSwJb7KZw", "name": "Parrilla Pe\u00f1a", "latitude": -34.6009748, "longitude": -58.3914437, "address": "Rodr\u00edguez Pe\u00f1a 682"}
{"business_id": "F1ENbhHqtHwswqOwzfKukQ", "name": "Sarkis", "latitude": -34.591438, "longitude": -58.436135, "address": "Thames 1101"}
{"business_id": "hqhEhPtRuKUk8jucfJRmWw", "name": "Tierra de Nadie", "latitude": -34.614706, "longitude": -58.439313, "address": "Av. Avellaneda 588"}
{"business_id": "FWheAT4oRnj9JFMlABJtYw", "name": "Verne Club", "latitude": -34.5919038, "longitude": -58.419089, "address": "Av. Medrano 1475"}
{"business_id": "p-loHBt7WKV89BA3WVYG6A", "name": "Dellepiane Bar", "latitude": -34.600916, "longitude": -58.39091, "address": "Luis Dellepiane 685"}
{"business_id": "eEumIzpCxxfNqJoIO5U5Mg", "name": "Fukuro Noodle Bar", "latitude": -34.5833553, "longitude": -58.433923, "address": "Costa Rica 5514"}
{"business_id": "vPApKoVICn44rsc5PL3h6g", "name": "On Tap", "latitude": -34.5830930221414, "longitude": -58.4339036779098, "address": "Costa Rica 5527"}
{"business_id": "xw1AKC49JQF1SoaTFxGMbQ", "name": "Victoria Brown", "latitude": -34.5871690660812, "longitude": -58.4283181085092, "address": "Costa Rica 4821"}
{"business_id": "OVavC-fPs-KvZ68uaFxFDA", "name": "Negro", "latitude": -34.6009298172975, "longitude": -58.3795261010528, "address": "Suipacha 637"}
{"business_id": "Q2G8a2RJNH9L4TUMwlLFig", "name": "Pani", "latitude": -34.5888842, "longitude": -58.3936346, "address": "Vicente L\u00f3pez 2056"}
{"business_id": "ln2hIFEgmlIX-m_kd_-w2A", "name": "All Saints Caf\u00e9", "latitude": -34.5607416439293, "longitude": -58.4593025110378, "address": "Ciudad de la Paz 2300"}
{"business_id": "FkUsr3cDC7yLRkdBrGd42g", "name": "El Cuartito", "latitude": -34.597649543903, "longitude": -58.38554646573, "address": "Talcahuano 937"}
{"business_id": "gMy3piQj6JO2_-GN4nE2vg", "name": "Caba\u00f1a Las Lilas", "latitude": -34.603712, "longitude": -58.366911, "address": "Av. Alicia Moreau de Justo 516"}
{"business_id": "AqsCcS8urpCzKbwsKvdqmA", "name": "Heisenburger Burger Lab", "latitude": -34.5890910310299, "longitude": -58.4318449348211, "address": "Gorriti 5054"}
{"business_id": "n6slcj6l3k1lcPR20sz8Uw", "name": "LAB", "latitude": -34.586, "longitude": -58.436794, "address": "Humboldt 1542"}
{"business_id": "3NiLCtlP8OmSGkjiE6mVwA", "name": "Rapanui", "latitude": -34.5942216247204, "longitude": -58.3995972284714, "address": "Arenales 2302"}
{"business_id": "Hg-HCEzj-oZMJ6ItE8m8Ew", "name": "Caf\u00e9 Tortoni", "latitude": -34.608655, "longitude": -58.378214, "address": "Av. de Mayo 825"}
{"business_id": "zsAyGBCtiwbUSZZ3luQtvw", "name": "Felix Felicis & Co.", "latitude": -34.5900255, "longitude": -58.431898, "address": "Serrano 1415"}
{"business_id": "_2B7uDUEtoKwesQZ6TtxWw", "name": "La Panera Rosa", "latitude": -34.5881965, "longitude": -58.4293184, "address": "Jorge Lu\u00eds Borges 1685"}
{"business_id": "-USGrjeJIncu5Gotfq12pw", "name": "Las Cabras", "latitude": -34.583542, "longitude": -58.4355, "address": "Fitz Roy 1795"}
{"business_id": "2ByAGJkSw0suGiwiqAF9-A", "name": "La Brigada", "latitude": -34.6184348166777, "longitude": -58.3726708859139, "address": "Estados Unidos 465"}
{"business_id": "u53NbCXSMG9kDkaruNwFWw", "name": "Malv\u00f3n", "latitude": -34.5942571, "longitude": -58.4390272, "address": "Serrano 789"}
{"business_id": "XxEFNi1VbEkI9YIGSNFfvg", "name": "Camping", "latitude": -34.5859974060941, "longitude": -58.3918602392077, "address": "Av. Pueyrred\u00f3n 2501"}
{"business_id": "J0XezYZ3pYOczFsUHXpcHw", "name": "Caf\u00e9 Cresp\u00edn", "latitude": -34.5972593, "longitude": -58.4393309, "address": "Vera 699"}
{"business_id": "jl7F0aEwfFJDu3YyCnPhqQ", "name": "Chori", "latitude": -34.5878377, "longitude": -58.4302438, "address": "Thames 1653"}
{"business_id": "GMpn_QeiNgqZDKfQ6lYmYw", "name": "Tufic", "latitude": -34.5870239, "longitude": -58.423556, "address": "Guatemala 4597"}
{"business_id": "kGW8PO5715a20Mg3IR3FDQ", "name": "Lattente", "latitude": -34.5860600636305, "longitude": -58.4280861541629, "address": "Thames 1891"}
{"business_id": "npqxAxKqFGGI6EiVcv4Vww", "name": "878", "latitude": -34.592895, "longitude": -58.4391, "address": "Thames 878"}
{"business_id": "7mZ7Msc3m9UCOxBV6QXu2g", "name": "Heisenburger Burger Lab", "latitude": -34.57242, "longitude": -58.43062, "address": "B\u00e1ez 252"}
{"business_id": "eRiKnmLS5qmhS7ZyowX67g", "name": "Kansas Grill & Bar", "latitude": -34.565484, "longitude": -58.432366, "address": "Av. del Libertador 4625"}
{"business_id": "LRVX3gTnm5JePS9PKDUznw", "name": "Mo\u00f6i", "latitude": -34.56197, "longitude": -58.453788, "address": "Cuba 1985"}
{"business_id": "SFVGbhl7v004SoLLYG2ddQ", "name": "Fervor", "latitude": -34.587366, "longitude": -58.387353, "address": "Posadas 1519"}
{"business_id": "QhBY0eHbn2SKp7lCKyItdQ", "name": "Cocu", "latitude": -34.5913115052948, "longitude": -58.4280423715395, "address": "Malabia 1510"}
{"business_id": "a51G3W4egL0hKGX-38wHKw", "name": "La Mezzetta", "latitude": -34.5782129826938, "longitude": -58.4605929032867, "address": "Av. \u00c1lvarez Thomas 1321"}
{"business_id": "m2sSApBKHPtFq75IF-x4Dg", "name": "Dean & Dennys", "latitude": -34.5908201, "longitude": -58.4271244, "address": "Malabia 1591"}
{"business_id": "6w2kxKHbQX0Ojh0YGMXtsw", "name": "Muu Lecheria", "latitude": -34.5886413, "longitude": -58.4261579, "address": "Armenia 1810"}
{"business_id": "kZo7z35e5_JeIzKk8QXb_A", "name": "Johnny  B. Good", "latitude": -34.6061354854723, "longitude": -58.3666704994041, "address": "Av. Alicia Moreau de Justo 740"}
{"business_id": "EjFq6EvBnicFyQkLtMkL3Q", "name": "Cuman\u00e1", "latitude": -34.595303067999, "longitude": -58.391974248885, "address": "Rodr\u00edguez Pe\u00f1a 1149"}
{"business_id": "6o5k_vAksr6ZW_WiBsA3Hg", "name": "Full City Coffee House", "latitude": -34.5884849, "longitude": -58.4317356, "address": "Thames 1535"}
{"business_id": "Y0Yt3Aheb8nV8zk0hGAmMQ", "name": "Cerveza Artesanal Morante", "latitude": -34.5870747227091, "longitude": -58.4331099316478, "address": "Godoy Cruz 1781"}
{"business_id": "Qo4P6dnHCd3T1bbucdyeuQ", "name": "DIGGS", "latitude": -34.5890353, "longitude": -58.4301884, "address": "Serrano 1580"}
{"business_id": "8GZFOV7QzfJkyGEc1aPYvQ", "name": "Francis Platz", "latitude": -34.5517357073244, "longitude": -58.4580534696579, "address": "Quesada 1892"}
{"business_id": "52ijj9xR7bbCcMEfhV2zKg", "name": "Coffee Town", "latitude": -34.6193078561385, "longitude": -58.3729018490738, "address": "Bol\u00edvar 976"}
{"business_id": "4WVJiGAWqw4fIzyUTWIVLQ", "name": "La Causa Nikkei", "latitude": -34.59412, "longitude": -58.393335, "address": "Av. Callao 1290"}
{"business_id": "SD_WFOmcEvHf0GhYG9ibkg", "name": "P\u00e9rez-H", "latitude": -34.58469, "longitude": -58.43553, "address": "Honduras 5509"}
{"business_id": "2sVGkce9uWcySUUK7nDXOQ", "name": "Jerome The Beer Republic", "latitude": -34.59211, "longitude": -58.42896, "address": "Malabia 1401"}
{"business_id": "iWdduDa5fMvr8QKJMlitFw", "name": "Tostado Caf\u00e9 Club", "latitude": -34.5992183086543, "longitude": -58.3882931716128, "address": "Av. C\u00f3rdoba 1501"}
{"business_id": "MfGxCh-Kwath7VdKSqxlww", "name": "Pani", "latitude": -34.578197, "longitude": -58.438091, "address": "Nicaragua 6044"}
{"business_id": "bqd440uWItNWVq_qLcXLsw", "name": "Sheldon", "latitude": -34.589004086506, "longitude": -58.4296991676092, "address": "Honduras 4969"}
{"business_id": "TRfvc5po7nvYDco5KkDtLQ", "name": "The Temple Bar", "latitude": -34.5881043206848, "longitude": -58.4267754406527, "address": "Costa Rica 4677"}
{"business_id": "uXNp5knaffwZUF9YY18g0A", "name": "La Mar", "latitude": -34.5782, "longitude": -58.43735, "address": "Ar\u00e9valo 2024"}
{"business_id": "DfpKBR0sXxh37KHIvR6Fzw", "name": "Cosi Mi Piace", "latitude": -34.58995, "longitude": -58.4264, "address": "El Salvador 4618"}
{"business_id": "8ilMou9GP6aWUnfSuerlWg", "name": "Chaco Bar", "latitude": -34.6171098077009, "longitude": -58.4290808959158, "address": "Chaco 21"}
{"business_id": "Zsw_WJY4gknPWnV_EiXyeQ", "name": "Brandon", "latitude": -34.58391, "longitude": -58.43611, "address": "Fitz Roy 1722"}
{"business_id": "BzJU4tNkb2ftwSZM3ROgSw", "name": "La F\u00e1brica del Taco", "latitude": -34.589069, "longitude": -58.431824, "address": "Gorriti 5062"}
{"business_id": "aw8zbPkvjtOl2nRqhy0lUg", "name": "Burger 54", "latitude": -34.59586, "longitude": -58.39537, "address": "Av. Santa Fe 1946"}
{"business_id": "p8iNFr2vSJbAiXETYSKtug", "name": "La Hormiga", "latitude": -34.5894309661386, "longitude": -58.4274455153183, "address": "Armenia 1680"}
{"business_id": "CtoRN0TgJLEH1Uce8smhVA", "name": "Le Pain Quotidien", "latitude": -34.58979, "longitude": -58.42774, "address": "Armenia 1641"}
{"business_id": "PwUggZMuQXA_NKLPQKR73g", "name": "Williamsburg", "latitude": -34.5904249970333, "longitude": -58.4288814291358, "address": "Armenia 1532"}
{"business_id": "GCMhrxViaFcUV_HDlzbgKg", "name": "La Puerta Roja", "latitude": -34.616602, "longitude": -58.375974, "address": "Chacabuco 733"}
{"business_id": "JKnEe5WHStridqGuthOPkA", "name": "Salgado Alimentos", "latitude": -34.599052, "longitude": -58.435921, "address": "Juan Ram\u00edrez de Velasco 401"}
{"business_id": "DkuKu1mdXn-O3zh7xlUoGg", "name": "The Burger Company", "latitude": -34.5904840631065, "longitude": -58.4274568408728, "address": "Honduras 4733"}
{"business_id": "0iOXiGffx2H1j06Ao5KXMw", "name": "Las Cuartetas", "latitude": -34.60354, "longitude": -58.378583, "address": "Av. Corrientes 838"}
{"business_id": "eeT5MIZlCFllzcFvNvSN-g", "name": "Los Galgos", "latitude": -34.60296, "longitude": -58.39232, "address": "Av. Callao 501"}
{"business_id": "EiA8y10ywfTll-kh6wn97g", "name": "The Shanghai Dragon", "latitude": -34.5941718723483, "longitude": -58.4285108227539, "address": "Ar\u00e1oz 1199"}
{"business_id": "Kz97sGZVirhBGWmgsxCTfA", "name": "El Tejano", "latitude": -34.59504, "longitude": -58.38721, "address": "Uruguay 1175"}
{"business_id": "i4AtUSfjmFOnbtTE88cv7g", "name": "Temple Bar", "latitude": -34.5865287515455, "longitude": -58.4323059394956, "address": "Godoy Cruz 1853"}
{"business_id": "RoidimQIMaVK6C4oWaNwsg", "name": "Cementerio de la Recoleta", "latitude": -34.5877231998735, "longitude": -58.3936481870968, "address": "Jun\u00edn 1760"}
{"business_id": "HxA3VfItZXxmc1S_vWHN5A", "name": "Donkeys and Friends", "latitude": -34.5861282, "longitude": -58.4281311, "address": "Thames 1889"}
{"business_id": "HGCX9bfl0V1UGj6bjJOYeA", "name": "Las Violetas", "latitude": -34.6113571495616, "longitude": -58.4209628775716, "address": "Av. Rivadavia 3899"}
{"business_id": "jxg4P9y61H63DOtWramDzQ", "name": "The Oldest", "latitude": -34.617288, "longitude": -58.435345, "address": "Juan B. Ambrosetti 31"}
{"business_id": "6J61LTuGWPl8GW-DvfydvA", "name": "La Panera Rosa", "latitude": -34.588967, "longitude": -58.425947, "address": "Costa Rica 4582"}
{"business_id": "FbMfRug-FROOX5mqKzhJmA", "name": "Mi Barrio Hamburgueser\u00eda", "latitude": -34.5928587, "longitude": -58.4031378, "address": "Arenales 2609"}
{"business_id": "d6yiQF3h8XvCUy_ECotMIQ", "name": "Antares", "latitude": -34.6136653074409, "longitude": -58.3733395967191, "address": "Bolivar 491"}
{"business_id": "uOfVx0L1P1CXrEKag__xuQ", "name": "Cadore", "latitude": -34.603948, "longitude": -58.390685, "address": "Av. Corrientes 1695"}
{"business_id": "tTmLCOKJWGYPcRbobYQEeg", "name": "Pani", "latitude": -34.5996986268016, "longitude": -58.3741288310762, "address": "Viamonte 501"}
{"business_id": "pHqi7IoS37hZW6AdhBeL1w", "name": "Burger Mood", "latitude": -34.599563, "longitude": -58.372113, "address": "Viamonte 359"}
{"business_id": "wf2_BoNvqjndDxBsGy3kSg", "name": "Pani", "latitude": -34.5883628, "longitude": -58.4284326, "address": "El Salvador 4827"}
{"business_id": "BJjuNw-tERIW58-DFQUKjQ", "name": "Osaka", "latitude": -34.580738834843, "longitude": -58.432616084638, "address": "Soler 5608"}
{"business_id": "AsZtQLG6I-VYp9BEovAbRg", "name": "MALBA - Fundaci\u00f3n Costantini", "latitude": -34.5772727, "longitude": -58.4037466, "address": "Av. Figueroa Alcorta 3415"}
{"business_id": "utYBmkctDQ90966ozPPFDw", "name": "Caracas Bar", "latitude": -34.585514, "longitude": -58.425638, "address": "Guatemala 4802"}
{"business_id": "b1C7btUjYAFunlQLuoVYHQ", "name": "Desnivel", "latitude": -34.617925, "longitude": -58.371603380925, "address": "Defensa 855"}
{"business_id": "3icrdO9HHOcXE41J2tqsDw", "name": "La Alacena", "latitude": -34.5940553, "longitude": -58.4226472, "address": "Gasc\u00f3n 1401"}
{"business_id": "ZxqnI-Ys-WEbJOJn2Thwkg", "name": "Usina Cafetera", "latitude": -34.5770225371494, "longitude": -58.4817129001021, "address": "Av. Triunvirato 4307"}
{"business_id": "brAh6bwjTwiuHboQj6B04A", "name": "The Hard Rock Cafe", "latitude": -34.5859916095795, "longitude": -58.3933813869953, "address": "Av. Pueyrred\u00f3n S/N"}
{"business_id": "62-HeF_VkScNJhv_gP_Qwg", "name": "Al Zein", "latitude": -34.570182, "longitude": -58.432279, "address": "Arce 488"}
{"business_id": "kaQrzkB_n7ZaOWgv6lZzmA", "name": "Siamo nel Forno", "latitude": -34.5806007, "longitude": -58.4375992, "address": "Costa Rica 5886"}
{"business_id": "5ayMIsMdNVVYXYfG1mw7_w", "name": "Dean & Dennys", "latitude": -34.5888634, "longitude": -58.3929253, "address": "Junin 1721"}
{"business_id": "kMx0O-NOePGWvdtk13_08A", "name": "Elena Restaurante", "latitude": -34.5901198, "longitude": -58.3824322, "address": "Posadas 1086"}
{"business_id": "9bdyss1RmtYleE0m0RLg5Q", "name": "Birkin Coffee + Bar", "latitude": -34.5803126, "longitude": -58.413269, "address": "Rep\u00fablica \u00c1rabe Siria 3061"}
{"business_id": "GwpjCT5g7z1WqLPPX3nCxw", "name": "La Cresta", "latitude": -34.6018409, "longitude": -58.4178345, "address": "Bulnes 829"}