{"business_id":"2VKJGOFqqT--mTZcarZg5g","name":"Super Nails","address":"2275 Murfreesboro Pike","city":"Nashville","state":"TN","postal_code":"37217","latitude":36.0859768609,"longitude":-86.6501472518,"stars":2.5,"review_count":26,"is_open":1,"attributes":{"RestaurantsPriceRange2":"2","BusinessParking":"{'garage': False, 'street': False, 'validated': False, 'lot': False, 'valet': False}","ByAppointmentOnly":"False","BusinessAcceptsCreditCards":"True","BikeParking":"False"},"categories":"Beauty & Spas, Nail Salons","hours":{"Tuesday":"9:30-19:30","Wednesday":"9:30-19:30","Thursday":"9:30-19:30","Friday":"9:30-19:30","Saturday":"9:30-19:30","Sunday":"11:0-17:0"}}
{"business_id":"Cfl4gpf9oneiuZUExMtA4w","name":"Sindoore - Indian By Nature","address":"457 Donelson Pike","city":"Nashville","state":"TN","postal_code":"37214","latitude":36.1515312,"longitude":-86.6660272,"stars":4.5,"review_count":297,"is_open":1,"attributes":{"GoodForKids":"True","WiFi":"u'free'","Ambience":"{'touristy': False, 'hipster': False, 'romantic': False, 'divey': False, 'intimate': True, 'trendy': True, 'upscale': False, 'classy': True, 'casual': True}","BikeParking":"True","OutdoorSeating":"False","RestaurantsPriceRange2":"2","HappyHour":"False","BusinessParking":"{'garage': False, 'street': False, 'validated': False, 'lot': True, 'valet': False}","RestaurantsReservations":"True","BusinessAcceptsCreditCards":"True","Alcohol":"u'full_bar'","WheelchairAccessible":"True","GoodForMeal":"{'dessert': None, 'latenight': False, 'lunch': True, 'dinner': True, 'brunch': False, 'breakfast': False}","RestaurantsGoodForGroups":"True","Caters":"True","DriveThru":"False","RestaurantsAttire":"u'casual'","DogsAllowed":"False","RestaurantsTakeOut":"True","RestaurantsDelivery":"True","RestaurantsTableService":"True","NoiseLevel":"u'average'","HasTV":"False"},"categories":"Kebab, Desserts, Indian, Restaurants, Food, Nightlife, Soup, Vegetarian, Bars","hours":{"Monday":"17:0-22:0","Tuesday":"17:0-22:0","Wednesday":"17:0-22:0","Thursday":"17:0-22:0","Friday":"17:0-22:0","Saturday":"17:0-22:0","Sunday":"17:0-22:0"}}
{"business_id":"OWL2B9wYz7w9DnD2JiLJ4Q","name":"Jefferson Bucks Hospital","address":"380 Oxford Valley Rd","city":"Langhorne","state":"PA","postal_code":"19047","latitude":40.1831148462,"longitude":-74.8674057119,"stars":2.5,"review_count":26,"is_open":1,"attributes":{"BusinessAcceptsCreditCards":"True","ByAppointmentOnly":"True"},"categories":"Doctors, Health & Medical, Medical Centers, Hospitals","hours":null}
{"business_id":"lswGToIbke_g7ij0klQFAg","name":"Le Chevelure","address":"3401 S Broad St","city":"New Orleans","state":"LA","postal_code":"70125","latitude":29.9506233,"longitude":-90.1016652,"stars":3.0,"review_count":9,"is_open":0,"attributes":{"GoodForKids":"False","BusinessAcceptsCreditCards":"True","HairSpecializesIn":"{'straightperms': True, 'coloring': False, 'extensions': True, 'africanamerican': True, 'curly': True, 'kids': True, 'perms': True, 'asian': False}","ByAppointmentOnly":"False","WheelchairAccessible":"True","RestaurantsPriceRange2":"2","BikeParking":"True","BusinessParking":"{'garage': False, 'street': True, 'validated': False, 'lot': False, 'valet': False}"},"categories":"Hair Salons, Hair Extensions, Beauty & Spas, Blow Dry\/Out Services","hours":{"Monday":"9:0-19:0","Tuesday":"9:0-19:0","Wednesday":"9:0-19:0","Thursday":"9:0-19:0","Friday":"9:0-19:0","Saturday":"8:0-18:0","Sunday":"12:0-18:0"}}
{"business_id":"EmcdFNYykW-g8jtGOWUPZw","name":"Jelly Donut","address":"2245 Oddie Blvd","city":"Sparks","state":"NV","postal_code":"89431","latitude":39.5443351,"longitude":-119.7745487,"stars":3.5,"review_count":14,"is_open":0,"attributes":{"RestaurantsPriceRange2":"2","RestaurantsTakeOut":"True","BusinessParking":"{'garage': False, 'street': False, 'validated': False, 'lot': False, 'valet': False}","BusinessAcceptsCreditCards":"True"},"categories":"Donuts, Food","hours":{"Tuesday":"6:0-17:0","Wednesday":"6:0-17:0","Thursday":"6:0-17:0","Friday":"6:0-17:0","Saturday":"6:0-17:0","Sunday":"6:0-17:0"}}
{"business_id":"JgvpEpo30EFKmzivR_X9ow","name":"Trader Joe's","address":"2500 Fashion Center Blvd","city":"Newark","state":"DE","postal_code":"19702","latitude":39.6729239795,"longitude":-75.6481475685,"stars":5.0,"review_count":9,"is_open":1,"attributes":{"RestaurantsTakeOut":"None","BusinessParking":"{u'valet': False, u'garage': False, u'street': False, u'lot': True, u'validated': False}","RestaurantsDelivery":"None"},"categories":"Grocery, Food, Specialty Food, Health Markets","hours":{"Monday":"0:0-0:0","Tuesday":"8:0-21:0","Wednesday":"8:0-21:0","Thursday":"8:0-21:0","Friday":"8:0-21:0","Saturday":"8:0-21:0","Sunday":"8:0-17:0"}}
{"business_id":"9tWLiz52KN-S7CFZvBhslA","name":"Beyond Bread","address":"6260 E Speedway Blvd","city":"Tucson","state":"AZ","postal_code":"85712","latitude":32.2352483,"longitude":-110.858671,"stars":4.0,"review_count":410,"is_open":1,"attributes":{"GoodForKids":"True","RestaurantsReservations":"False","BusinessParking":"{'garage': False, 'street': False, 'validated': False, 'lot': True, 'valet': False}","OutdoorSeating":"True","NoiseLevel":"u'average'","BusinessAcceptsCreditCards":"True","RestaurantsTakeOut":"True","RestaurantsAttire":"'casual'","Corkage":"False","RestaurantsGoodForGroups":"True","BYOBCorkage":"'yes_free'","Ambience":"{'romantic': False, 'intimate': False, 'touristy': False, 'hipster': False, 'divey': False, 'classy': False, 'trendy': False, 'upscale': False, 'casual': True}","Alcohol":"u'beer_and_wine'","Caters":"True","BikeParking":"True","WiFi":"'free'","GoodForMeal":"{'dessert': False, 'latenight': False, 'lunch': True, 'dinner': False, 'brunch': False, 'breakfast': False}","RestaurantsTableService":"False","WheelchairAccessible":"True","RestaurantsPriceRange2":"2","RestaurantsDelivery":"True","DogsAllowed":"False","HasTV":"False","HappyHour":"False"},"categories":"Sandwiches, Bakeries, Coffee & Tea, Restaurants, Food","hours":{"Monday":"0:0-0:0","Tuesday":"7:0-19:0","Wednesday":"7:0-19:0","Thursday":"7:0-18:0","Friday":"7:0-19:0","Saturday":"7:0-19:0","Sunday":"7:0-19:0"}}
{"business_id":"5D63eD6sI_HzGv1Nd7ZUUw","name":"Baskin Robbins","address":"5961 Bullard Ave","city":"New Orleans","state":"LA","postal_code":"70128","latitude":30.0416443,"longitude":-89.95659,"stars":3.5,"review_count":10,"is_open":1,"attributes":{"RestaurantsPriceRange2":"1","BusinessParking":"{'garage': False, 'street': False, 'validated': False, 'lot': False, 'valet': False}","BusinessAcceptsCreditCards":"True","RestaurantsDelivery":"True"},"categories":"Food, Ice Cream & Frozen Yogurt","hours":null}
{"business_id":"-Xw5Etsk7PJydWdpg6XFfA","name":"Martin's Jewelers Inc","address":"664 Oakfield Dr","city":"Brandon","state":"FL","postal_code":"33511","latitude":27.9351369,"longitude":-82.2934492,"stars":4.5,"review_count":11,"is_open":0,"attributes":{"RestaurantsPriceRange2":"2","BikeParking":"False","ByAppointmentOnly":"False","BusinessAcceptsCreditCards":"True","BusinessParking":"{'garage': False, 'street': False, 'validated': False, 'lot': True, 'valet': False}"},"categories":"Shopping, Jewelry, Local Services, Watch Repair","hours":{"Tuesday":"9:0-18:0","Wednesday":"9:0-18:0","Thursday":"9:0-18:0","Friday":"9:0-18:0","Saturday":"9:0-17:0"}}
{"business_id":"sTfVZ9xo36tU8R5DnaCGkg","name":"Acapulco Taqueria","address":"1001 N Macdill Ave","city":"Tampa","state":"FL","postal_code":"33607","latitude":27.952494,"longitude":-82.4926884,"stars":4.5,"review_count":303,"is_open":0,"attributes":{"GoodForKids":"True","BusinessAcceptsCreditCards":"True","RestaurantsAttire":"u'casual'","RestaurantsTakeOut":"True","BusinessParking":"{'garage': False, 'street': False, 'validated': False, 'lot': True, 'valet': False}","Alcohol":"u'beer_and_wine'","BikeParking":"True","WiFi":"u'no'","RestaurantsPriceRange2":"1","NoiseLevel":"u'average'","RestaurantsReservations":"False","HasTV":"False","HappyHour":"False","DogsAllowed":"False","RestaurantsGoodForGroups":"True","GoodForMeal":"{'dessert': False, 'latenight': False, 'lunch': True, 'dinner': True, 'brunch': False, 'breakfast': False}","RestaurantsTableService":"False","OutdoorSeating":"None","Caters":"True","RestaurantsDelivery":"None","Ambience":"{'touristy': False, 'hipster': False, 'romantic': False, 'divey': True, 'intimate': False, 'trendy': False, 'upscale': False, 'classy': False, 'casual': True}"},"categories":"Grocery, Food, Restaurants, Tacos, Mexican","hours":{"Monday":"11:0-16:0","Tuesday":"11:0-16:0","Wednesday":"11:0-16:0","Thursday":"11:0-16:0","Friday":"11:0-16:0","Saturday":"11:0-16:0"}}
{"business_id":"YKAwKv3xIMNIFpUu9zH73w","name":"Sears","address":"4400 Veterans Mem Blvd","city":"Metairie","state":"LA","postal_code":"70006","latitude":30.002985,"longitude":-90.182095,"stars":2.0,"review_count":6,"is_open":0,"attributes":{"BusinessAcceptsCreditCards":"True","BusinessParking":"{'garage': False, 'street': False, 'validated': False, 'lot': False, 'valet': False}","RestaurantsPriceRange2":"2","BikeParking":"True"},"categories":"Fashion, Shopping, Department Stores, Electronics, Home & Garden, Appliances","hours":{"Monday":"10:0-20:0","Tuesday":"10:0-20:0","Wednesday":"10:0-20:0","Thursday":"10:0-20:0","Friday":"10:0-20:0","Saturday":"10:0-20:0","Sunday":"12:0-18:0"}}
{"business_id":"GrDgG_-kPmcbYdJGZw0i3w","name":"PBandU","address":"163 E Lancaster Ave","city":"Wayne","state":"PA","postal_code":"19087","latitude":40.044185,"longitude":-75.385575,"stars":3.5,"review_count":26,"is_open":0,"attributes":{"BusinessParking":"{'garage': False, 'street': True, 'validated': False, 'lot': False, 'valet': False}","RestaurantsTakeOut":"True","RestaurantsAttire":"u'casual'","GoodForKids":"True","Ambience":"{'romantic': False, 'intimate': False, 'touristy': False, 'hipster': False, 'divey': False, 'classy': False, 'trendy': False, 'upscale': False, 'casual': True}","RestaurantsPriceRange2":"1","NoiseLevel":"u'quiet'","BusinessAcceptsCreditCards":"True","Alcohol":"u'none'","RestaurantsGoodForGroups":"False","OutdoorSeating":"False","RestaurantsDelivery":"False","RestaurantsReservations":"False","HasTV":"True"},"categories":"Breakfast & Brunch, Restaurants, Specialty Food, Sandwiches, Food, American (Traditional)","hours":{"Monday":"11:0-20:0","Tuesday":"11:0-20:0","Wednesday":"11:0-20:0","Thursday":"11:0-20:0","Friday":"11:0-22:0","Saturday":"11:0-22:0","Sunday":"11:0-18:0"}}
{"business_id":"oOdSPQGdcpCQhuzBwLtrYA","name":"Chick-fil-A","address":"2000 Gallatin Pike N","city":"Madison","state":"TN","postal_code":"37115","latitude":36.3015289616,"longitude":-86.6944998142,"stars":3.0,"review_count":49,"is_open":1,"attributes":{"BusinessAcceptsCreditCards":"True","RestaurantsReservations":"False","RestaurantsAttire":"u'casual'","RestaurantsPriceRange2":"1","Alcohol":"u'none'","OutdoorSeating":"False","RestaurantsGoodForGroups":"True","BusinessParking":"{'garage': False, 'street': False, 'validated': False, 'lot': True, 'valet': False}","GoodForKids":"True","Caters":"True","WiFi":"'free'","NoiseLevel":"'average'","GoodForMeal":"{'dessert': True, 'latenight': False, 'lunch': True, 'dinner': True, 'brunch': False, 'breakfast': True}","Ambience":"{'touristy': False, 'hipster': False, 'romantic': False, 'divey': False, 'intimate': False, 'trendy': False, 'upscale': False, 'classy': False, 'casual': True}","DriveThru":"True","RestaurantsDelivery":"True","HasTV":"True","RestaurantsTakeOut":"True","BikeParking":"True"},"categories":"Chicken Wings, Caterers, Restaurants, Event Planning & Services, Fast Food, Chicken Shop","hours":{"Monday":"0:0-0:0","Tuesday":"6:0-21:0","Wednesday":"6:0-21:0","Thursday":"6:0-21:0","Friday":"6:0-22:0","Saturday":"6:0-18:0"}}
{"business_id":"0yELPu1_7T-V3InzfEPS7g","name":"La Cabaña Del Tio","address":"1709 Drew St","city":"Clearwater","state":"FL","postal_code":"33755","latitude":27.9677135,"longitude":-82.7665303,"stars":4.0,"review_count":160,"is_open":1,"attributes":{"BikeParking":"True","Alcohol":"u'none'","Caters":"False","GoodForKids":"True","RestaurantsPriceRange2":"1","RestaurantsReservations":"False","OutdoorSeating":"False","HasTV":"True","RestaurantsDelivery":"False","RestaurantsTakeOut":"True","RestaurantsGoodForGroups":"False","RestaurantsAttire":"u'casual'","NoiseLevel":"u'average'","Ambience":"{'romantic': False, 'intimate': False, 'classy': False, 'hipster': False, 'divey': True, 'touristy': False, 'trendy': False, 'upscale': False, 'casual': False}","WiFi":"u'no'","BusinessAcceptsCreditCards":"False","GoodForMeal":"{'dessert': False, 'latenight': False, 'lunch': True, 'dinner': True, 'brunch': False, 'breakfast': False}","BusinessParking":"{'garage': False, 'street': False, 'validated': False, 'lot': True, 'valet': False}"},"categories":"Restaurants, Mexican","hours":{"Monday":"5:0-21:0","Tuesday":"5:0-21:0","Wednesday":"5:0-21:0","Thursday":"5:0-21:0","Friday":"5:0-21:0","Saturday":"5:0-21:0","Sunday":"5:0-21:0"}}
{"business_id":"mHzTDjMxRPiWtuzEn3xOpg","name":"Alfonso's Pizzeria","address":"14942 N Florida Ave","city":"Tampa","state":"FL","postal_code":"33613","latitude":28.086680838,"longitude":-82.460234,"stars":4.0,"review_count":93,"is_open":1,"attributes":{"NoiseLevel":"u'average'","RestaurantsTakeOut":"True","RestaurantsDelivery":"True","GoodForKids":"True","BusinessAcceptsCreditCards":"True","RestaurantsGoodForGroups":"False","RestaurantsPriceRange2":"1","Alcohol":"u'beer_and_wine'","RestaurantsAttire":"u'casual'","RestaurantsReservations":"False","OutdoorSeating":"False","BusinessParking":"{'garage': False, 'street': None, 'validated': False, 'lot': True, 'valet': False}","Caters":"True","HasTV":"True","BikeParking":"True","WiFi":"u'no'","Ambience":"{'touristy': False, 'hipster': False, 'romantic': False, 'divey': None, 'intimate': False, 'trendy': False, 'upscale': False, 'classy': False, 'casual': True}","GoodForMeal":"{'dessert': False, 'latenight': False, 'lunch': True, 'dinner': True, 'brunch': False, 'breakfast': False}"},"categories":"Sandwiches, Restaurants, Pizza","hours":{"Monday":"11:0-21:0","Tuesday":"11:0-21:0","Wednesday":"11:0-21:0","Thursday":"11:0-21:0","Friday":"11:0-22:0","Saturday":"11:0-22:0"}}
{"business_id":"OUGxh9bxzzeQAuXuif2J6Q","name":"The Escape Game Nashville","address":"523 Opry Mills Dr","city":"Nashville","state":"TN","postal_code":"37214","latitude":36.2053863,"longitude":-86.6942567,"stars":5.0,"review_count":7,"is_open":1,"attributes":{"BusinessAcceptsCreditCards":"True","WheelchairAccessible":"True","BusinessParking":"{'garage': False, 'street': False, 'validated': False, 'lot': False, 'valet': False}"},"categories":"Team Building Activities, Event Planning & Services, Active Life, Escape Games","hours":null}
{"business_id":"thPaS6BuJhbkCupna-UN5A","name":"SEPHORA","address":"2000 Route 38","city":"Cherry Hill","state":"NJ","postal_code":"08002","latitude":39.942495,"longitude":-75.0255696,"stars":4.0,"review_count":39,"is_open":1,"attributes":{"BusinessParking":"{'garage': False, 'street': False, 'validated': False, 'lot': True, 'valet': False}","BikeParking":"False","BusinessAcceptsCreditCards":"True","ByAppointmentOnly":"False","RestaurantsPriceRange2":"2","RestaurantsTakeOut":"True","RestaurantsDelivery":"False"},"categories":"Cosmetics & Beauty Supply, Shopping, Beauty & Spas","hours":{"Monday":"11:0-20:0","Tuesday":"11:0-20:0","Wednesday":"11:0-20:0","Thursday":"11:0-20:0","Friday":"10:0-21:0","Saturday":"10:0-21:0","Sunday":"11:0-18:0"}}
{"business_id":"kzfxyV58pCrMfUJ13cLv6A","name":"Bombay Masala","address":"9120 Crawfordsville Rd","city":"Clermont","state":"IN","postal_code":"46234","latitude":39.8166733,"longitude":-86.3238703,"stars":5.0,"review_count":22,"is_open":0,"attributes":{"DogsAllowed":"False","Ambience":"{'touristy': False, 'hipster': False, 'romantic': False, 'divey': None, 'intimate': None, 'trendy': False, 'upscale': False, 'classy': None, 'casual': True}","Caters":"True","WheelchairAccessible":"False","Alcohol":"u'none'","RestaurantsDelivery":"True","RestaurantsReservations":"True","OutdoorSeating":"False","HasTV":"False","BusinessAcceptsCreditCards":"True","BYOB":"False","BikeParking":"True","RestaurantsTableService":"True","WiFi":"u'no'","BusinessParking":"{'garage': False, 'street': False, 'validated': False, 'lot': True, 'valet': False}","RestaurantsTakeOut":"True"},"categories":"Indian, Vegetarian, Restaurants","hours":{"Monday":"0:0-0:0","Tuesday":"11:0-20:0","Wednesday":"11:0-20:0","Thursday":"11:0-20:0","Friday":"11:0-20:0","Saturday":"11:0-20:0","Sunday":"16:0-20:0"}}
{"business_id":"ceyIA5KnyzNvBve2ycaAmg","name":"Berkeley Trace Apartments","address":"3806 Bensalem Blvd","city":"Bensalem","state":"PA","postal_code":"19020","latitude":40.0936463,"longitude":-74.9245764,"stars":2.5,"review_count":7,"is_open":1,"attributes":{"WheelchairAccessible":"False","BusinessAcceptsCreditCards":"False"},"categories":"Home Services, Real Estate Services, Property Management, Apartments, Real Estate","hours":{"Monday":"9:0-17:30","Tuesday":"9:0-17:30","Wednesday":"9:0-17:30","Thursday":"9:0-17:30","Friday":"9:0-16:30","Sunday":"10:0-16:0"}}
{"business_id":"McQZweV9DLoNzbJWksPJ6w","name":"Pilgrim Roasters","address":"4120 Main St","city":"Philadelphia","state":"PA","postal_code":"19127","latitude":40.0226761,"longitude":-75.2192502,"stars":4.5,"review_count":82,"is_open":1,"attributes":{"RestaurantsGoodForGroups":"True","GoodForMeal":"{'dessert': False, 'latenight': False, 'lunch': False, 'dinner': False, 'brunch': False, 'breakfast': False}","GoodForKids":"False","BikeParking":"True","NoiseLevel":"u'quiet'","RestaurantsTakeOut":"True","BusinessAcceptsCreditCards":"True","RestaurantsDelivery":"True","BusinessParking":"{u'valet': False, u'garage': None, u'street': True, u'lot': True, u'validated': False}","RestaurantsPriceRange2":"1","RestaurantsAttire":"'casual'","RestaurantsReservations":"False"},"categories":"Coffee & Tea, Coffee Roasteries, Food, Restaurants, Cafes","hours":{"Monday":"7:0-15:0","Tuesday":"7:0-15:0","Wednesday":"7:0-15:0","Thursday":"7:0-15:0","Friday":"7:0-15:0","Saturday":"8:0-15:0","Sunday":"8:0-15:0"}}
{"business_id":"Nyz8NTBkp1oOY3jPU9AHGg","name":"Link Piazzo Dog Park","address":"4740 Parkway Dr","city":"Reno","state":"NV","postal_code":"89502","latitude":39.48369,"longitude":-119.708109,"stars":4.5,"review_count":64,"is_open":1,"attributes":{"GoodForKids":"True","BikeParking":"True","DogsAllowed":"True","BusinessParking":"{'garage': False, 'street': False, 'validated': False, 'lot': True, 'valet': False}"},"categories":"Parks, Local Flavor, Active Life, Dog Parks","hours":{"Monday":"8:0-19:0","Tuesday":"8:0-19:0","Wednesday":"8:0-19:0","Thursday":"8:0-19:0","Friday":"8:0-19:0","Saturday":"8:0-19:0","Sunday":"8:0-19:0"}}
{"business_id":"TigqHTQ3GcepfKgT6eRTjw","name":"Chops Restaurant","address":"401 E City Ave","city":"Bala Cynwyd","state":"PA","postal_code":"19004","latitude":40.0072553,"longitude":-75.2137883,"stars":2.5,"review_count":25,"is_open":0,"attributes":{"Ambience":"{'romantic': False, 'intimate': False, 'touristy': False, 'hipster': False, 'divey': False, 'classy': False, 'trendy': False, 'upscale': False, 'casual': False}","RestaurantsReservations":"True","RestaurantsPriceRange2":"3","NoiseLevel":"u'average'","RestaurantsAttire":"u'dressy'","RestaurantsDelivery":"False","Alcohol":"u'full_bar'","BusinessAcceptsCreditCards":"True","BusinessParking":"{'garage': False, 'street': False, 'validated': False, 'lot': True, 'valet': False}","RestaurantsTakeOut":"True","RestaurantsGoodForGroups":"True","GoodForKids":"False","OutdoorSeating":"False","HappyHour":"True"},"categories":"Restaurants, Steakhouses","hours":null}
{"business_id":"gdH0yhCQaHjBQ6vd0rYiSA","name":"Krispy Krunchy Chicken","address":"1825-33 West Oregon Ave","city":"Philadelphia","state":"PA","postal_code":"19145","latitude":39.9181629,"longitude":-75.1789552,"stars":3.0,"review_count":5,"is_open":1,"attributes":{"RestaurantsTakeOut":"True","RestaurantsDelivery":"True"},"categories":"Breakfast & Brunch, Chicken Wings, American (New), Restaurants","hours":{"Monday":"11:0-21:0","Tuesday":"11:0-21:0","Wednesday":"11:0-21:0","Thursday":"11:0-21:0","Friday":"11:0-21:0","Saturday":"11:0-21:0","Sunday":"11:0-21:0"}}
{"business_id":"7obWY9fj6AvNT4Nyfa9lPw","name":"El Molcajete Mexican Restaurant & Sea Food","address":"636 Markley St, Ste 700","city":"Norristown","state":"PA","postal_code":"19401","latitude":40.1195097,"longitude":-75.3450894,"stars":4.5,"review_count":10,"is_open":1,"attributes":{"BusinessAcceptsCreditCards":"True","Alcohol":"u'none'","RestaurantsGoodForGroups":"True","WheelchairAccessible":"False","HasTV":"True","HappyHour":"False","BikeParking":"True","GoodForKids":"True","RestaurantsTableService":"True","RestaurantsPriceRange2":"1","Ambience":"{'touristy': False, 'hipster': False, 'romantic': False, 'divey': False, 'intimate': False, 'trendy': False, 'upscale': False, 'classy': False, 'casual': False}","WiFi":"u'free'","Caters":"True","BusinessParking":"{'garage': False, 'street': False, 'validated': False, 'lot': False, 'valet': False}","RestaurantsDelivery":"True","RestaurantsReservations":"True","RestaurantsTakeOut":"True","OutdoorSeating":"False"},"categories":"Restaurants, Seafood, Breakfast & Brunch, Mexican, Event Planning & Services, Custom Cakes, Caterers, Party & Event Planning, Food","hours":{"Monday":"9:0-17:0","Tuesday":"9:0-17:0","Wednesday":"9:0-22:0","Thursday":"9:0-22:0","Friday":"9:0-23:0","Saturday":"9:0-23:0","Sunday":"9:0-22:0"}}
{"business_id":"K47elujLPw0M369h-O_1hA","name":"Gyro & Philly Steak","address":"5751 Old Hickory Blvd, Ste 107","city":"Hermitage","state":"TN","postal_code":"37076","latitude":36.1733093,"longitude":-86.6026487,"stars":4.5,"review_count":23,"is_open":1,"attributes":{"BusinessAcceptsCreditCards":"True","RestaurantsDelivery":"True","Ambience":"{'touristy': False, 'hipster': False, 'romantic': False, 'divey': False, 'intimate': False, 'trendy': False, 'upscale': False, 'classy': False, 'casual': False}","Corkage":"False","RestaurantsTableService":"True","OutdoorSeating":"False","HasTV":"True","BikeParking":"True","Alcohol":"u'none'","BusinessParking":"{'garage': None, 'street': None, 'validated': None, 'lot': True, 'valet': False}","RestaurantsTakeOut":"True","BYOB":"False","WheelchairAccessible":"True","WiFi":"u'free'","Caters":"True"},"categories":"Restaurants, Sandwiches, Cheesesteaks","hours":{"Monday":"10:0-22:0","Tuesday":"10:0-22:0","Wednesday":"10:0-22:0","Thursday":"10:0-22:0","Friday":"10:0-22:0","Saturday":"10:0-22:0"}}
{"business_id":"0RD4BJhzQI6aySYx87KBrA","name":"Beel Chiropractic Center","address":"311 Enon Springs Rd E","city":"Smyrna","state":"TN","postal_code":"37167","latitude":35.9748653,"longitude":-86.5061884,"stars":5.0,"review_count":7,"is_open":1,"attributes":{"BusinessAcceptsCreditCards":"True","AcceptsInsurance":"True","ByAppointmentOnly":"False"},"categories":"Health & Medical, Chiropractors","hours":{"Monday":"8:0-18:0","Tuesday":"8:0-18:0","Wednesday":"8:0-18:0","Friday":"8:0-18:0"}}
{"business_id":"nRhBJZSwPEYVUEFQ_3gC6g","name":"MedExpress Urgent Care","address":"408 E Brandon Blvd","city":"Brandon","state":"FL","postal_code":"33511","latitude":27.937917,"longitude":-82.281115,"stars":2.5,"review_count":19,"is_open":1,"attributes":{"BusinessAcceptsCreditCards":"True","ByAppointmentOnly":"True","AcceptsInsurance":"True"},"categories":"Medical Centers, Emergency Rooms, Health & Medical, Urgent Care, Walk-in Clinics, Doctors","hours":{"Monday":"0:0-0:0","Tuesday":"8:0-19:0","Wednesday":"8:0-16:0","Thursday":"8:0-19:0","Friday":"8:0-19:0","Saturday":"8:0-19:0","Sunday":"8:0-19:0"}}
{"business_id":"ivqoS7vO__2-rerN_IjZmA","name":"Irie Foods","address":"2807 Mill Woods Road NW","city":"Edmonton","state":"AB","postal_code":"T6K 4A9","latitude":53.4591,"longitude":-113.44753,"stars":4.0,"review_count":21,"is_open":1,"attributes":{"RestaurantsPriceRange2":"2","RestaurantsGoodForGroups":"False","RestaurantsTakeOut":"True","RestaurantsAttire":"'casual'","RestaurantsReservations":"False","HasTV":"True","GoodForMeal":"{'dessert': False, 'latenight': False, 'lunch': False, 'dinner': False, 'brunch': False, 'breakfast': False}","GoodForKids":"True","OutdoorSeating":"False","RestaurantsDelivery":"True","WiFi":"'free'","Ambience":"{u'hipster': None, u'casual': None, u'touristy': None, u'trendy': None, u'intimate': False, u'romantic': False, u'classy': None, u'upscale': None}","BusinessParking":"{'garage': False, 'street': False, 'validated': False, 'lot': False, 'valet': False}"},"categories":"Restaurants, Caribbean","hours":{"Monday":"11:0-20:0","Tuesday":"11:0-20:0","Wednesday":"11:0-20:0","Thursday":"11:0-20:0","Friday":"11:0-20:0","Saturday":"12:0-20:0"}}
{"business_id":"QVmRgzIN3S2hvOja0HmM8Q","name":"Chuck E. Cheese","address":"2100 Rt 38","city":"Cherry Hill","state":"NJ","postal_code":"08002","latitude":39.9419625746,"longitude":-75.0193926355,"stars":2.5,"review_count":18,"is_open":1,"attributes":{"BusinessAcceptsCreditCards":"True","RestaurantsReservations":"True","RestaurantsAttire":"u'casual'","BusinessParking":"None","RestaurantsPriceRange2":"2","Caters":"True","OutdoorSeating":"False","Ambience":"None","Alcohol":"'none'","RestaurantsTakeOut":"True","RestaurantsGoodForGroups":"True","BikeParking":"False","GoodForKids":"True","WiFi":"'free'","HasTV":"True","NoiseLevel":"'loud'","RestaurantsDelivery":"None"},"categories":"Restaurants, Arts & Entertainment, Active Life, Arcades, Pizza, Kids Activities, Indoor Playcentre","hours":{"Monday":"0:0-0:0","Tuesday":"11:0-21:0","Wednesday":"11:0-21:0","Thursday":"11:0-20:0","Friday":"11:0-20:0","Saturday":"11:0-20:0","Sunday":"11:0-20:0"}}
{"business_id":"12SbnXfsthBbBaF2YzhLfA","name":"Chili's","address":"13050 N Dale Mabry Hwy","city":"Tampa","state":"FL","postal_code":"33618","latitude":28.0644927,"longitude":-82.5052643,"stars":2.5,"review_count":97,"is_open":1,"attributes":{"RestaurantsPriceRange2":"2","RestaurantsAttire":"u'casual'","NoiseLevel":"u'loud'","Alcohol":"u'full_bar'","RestaurantsGoodForGroups":"True","BusinessAcceptsCreditCards":"True","OutdoorSeating":"True","HasTV":"True","BikeParking":"True","GoodForKids":"True","Caters":"True","HappyHour":"True","RestaurantsReservations":"False","RestaurantsTakeOut":"True","DogsAllowed":"False","RestaurantsDelivery":"True","CoatCheck":"False","Ambience":"{'touristy': False, 'hipster': False, 'romantic': False, 'divey': False, 'intimate': False, 'trendy': None, 'upscale': False, 'classy': False, 'casual': True}","RestaurantsTableService":"True","Music":"{'dj': False, 'background_music': False, 'no_music': False, 'jukebox': False, 'live': None, 'video': False, 'karaoke': None}","GoodForMeal":"{'dessert': True, 'latenight': None, 'lunch': True, 'dinner': True, 'brunch': False, 'breakfast': False}","BestNights":"{'monday': False, 'tuesday': False, 'friday': True, 'wednesday': False, 'thursday': False, 'sunday': False, 'saturday': True}","BusinessParking":"{'garage': False, 'street': False, 'validated': False, 'lot': True, 'valet': False}","WiFi":"u'no'"},"categories":"Tex-Mex, Bars, American (Traditional), Restaurants, Nightlife","hours":{"Monday":"11:0-23:0","Tuesday":"11:0-23:0","Wednesday":"11:0-23:0","Thursday":"11:0-23:0","Friday":"11:0-0:0","Saturday":"11:0-0:0","Sunday":"11:0-23:0"}}
{"business_id":"TWkuSY7CsnCKdrb3ht-SEA","name":"Melissa Stephens Nail Artistry","address":"2827 Columbine Pl","city":"Nashville","state":"TN","postal_code":"37204","latitude":36.113696,"longitude":-86.766012,"stars":5.0,"review_count":13,"is_open":0,"attributes":{"BusinessAcceptsBitcoin":"False","BikeParking":"True","BusinessParking":"{'garage': False, 'street': False, 'validated': False, 'lot': True, 'valet': False}","BusinessAcceptsCreditCards":"True","ByAppointmentOnly":"True","RestaurantsPriceRange2":"2"},"categories":"Nail Technicians, Beauty & Spas, Nail Salons","hours":null}
{"business_id":"DiRs7aNuRRRQNOtK4z8YHg","name":"Viva Nails","address":"11545 Gravois Rd","city":"Sappington","state":"MO","postal_code":"63126","latitude":38.5371024195,"longitude":-90.378965121,"stars":4.0,"review_count":16,"is_open":1,"attributes":{"BusinessAcceptsCreditCards":"True","BusinessParking":"{'garage': False, 'street': False, 'validated': False, 'lot': False, 'valet': False}","ByAppointmentOnly":"False","RestaurantsPriceRange2":"1"},"categories":"Nail Salons, Beauty & Spas","hours":null}
{"business_id":"DXsz-2d3gwQ9lQP0JVm-Ig","name":"Thai Together","address":"3830 Sherwood Drive, Unit 330","city":"Sherwood Park","state":"AB","postal_code":"T8H 0Z9","latitude":53.555171,"longitude":-113.293888,"stars":4.5,"review_count":32,"is_open":1,"attributes":{"RestaurantsPriceRange2":"2","RestaurantsGoodForGroups":"True","RestaurantsTakeOut":"True","GoodForKids":"True","Ambience":"{'touristy': False, 'hipster': False, 'romantic': False, 'intimate': False, 'trendy': False, 'upscale': False, 'classy': False, 'casual': False}","RestaurantsAttire":"'casual'","RestaurantsReservations":"True","BusinessParking":"{'garage': False, 'street': False, 'validated': False, 'lot': False, 'valet': False}","OutdoorSeating":"False","Corkage":"True","NoiseLevel":"u'quiet'","BikeParking":"True","Caters":"False","GoodForMeal":"{'dessert': False, 'latenight': False, 'lunch': False, 'dinner': False, 'brunch': False, 'breakfast': False}","HasTV":"True","RestaurantsTableService":"False","BYOB":"True","Alcohol":"u'full_bar'","RestaurantsDelivery":"True","WheelchairAccessible":"False","WiFi":"u'free'"},"categories":"Thai, Restaurants","hours":null}
{"business_id":"Q1LIxVX2BiZ4jSQRmh2k1w","name":"Tienda Morelos 6","address":"7940 Michigan Rd, Ste 12","city":"Indianapolis","state":"IN","postal_code":"46268","latitude":39.8978377,"longitude":-86.2172076,"stars":4.0,"review_count":9,"is_open":1,"attributes":{"BusinessAcceptsCreditCards":"True","RestaurantsTakeOut":"True","BusinessParking":"{u'valet': False, u'garage': False, u'street': None, u'lot': None, u'validated': False}","RestaurantsPriceRange2":"1","Caters":"False"},"categories":"Food, Restaurants, Grocery, American (New)","hours":null}
{"business_id":"2_sO0_PkMdZgAi8UQVQp4A","name":"Southwest Landscapes of Tucson","address":"9225 W Albert Rd","city":"Tucson","state":"AZ","postal_code":"85735","latitude":32.1842111,"longitude":-111.1618455,"stars":4.5,"review_count":19,"is_open":1,"attributes":{"BusinessAcceptsBitcoin":"False","BusinessAcceptsCreditCards":"True"},"categories":"Tree Services, Home Services, Landscaping, Irrigation","hours":{"Monday":"0:0-0:0","Tuesday":"7:0-15:0","Wednesday":"7:0-15:0","Thursday":"7:0-15:0","Friday":"7:0-15:0"}}
{"business_id":"nSJbJtBiAM2NNnzEgUs9Bw","name":"Five Star Athletics","address":"2730 E 4th St","city":"Reno","state":"NV","postal_code":"89512","latitude":39.5345941,"longitude":-119.7820048,"stars":3.5,"review_count":10,"is_open":1,"attributes":{"BusinessAcceptsCreditCards":"True","DogsAllowed":"False","ByAppointmentOnly":"True","GoodForKids":"True","BikeParking":"True","BusinessParking":"{'garage': False, 'street': False, 'validated': False, 'lot': True, 'valet': False}"},"categories":"Sports Clubs, Active Life, Fitness & Instruction, Gyms","hours":{"Monday":"16:0-21:0","Tuesday":"16:0-21:0","Wednesday":"16:0-21:0","Thursday":"16:0-21:0","Friday":"17:0-20:0","Saturday":"10:0-13:0","Sunday":"12:0-21:0"}}
{"business_id":"U4hNeOPDGupoHHBsec27WQ","name":"Frye's Moving Co","address":"202 W Clinton Ave","city":"Oaklyn","state":"NJ","postal_code":"08107","latitude":39.9015554,"longitude":-75.082434,"stars":2.5,"review_count":14,"is_open":1,"attributes":{"ByAppointmentOnly":"False","BusinessAcceptsCreditCards":"True"},"categories":"Home Services, Movers","hours":{"Monday":"8:0-17:0","Tuesday":"8:0-17:0","Wednesday":"8:0-17:0","Thursday":"8:0-17:0","Friday":"8:0-17:0","Saturday":"8:0-17:0","Sunday":"8:0-17:0"}}
{"business_id":"FCfTUUTYXfZchPvx7tkoWA","name":"Espíritu Mezcaleria","address":"520 Capdeville St","city":"New Orleans","state":"LA","postal_code":"70130","latitude":29.9471582,"longitude":-90.0691582,"stars":4.5,"review_count":107,"is_open":1,"attributes":{"RestaurantsGoodForGroups":"True","GoodForMeal":"{'dessert': None, 'latenight': None, 'lunch': None, 'dinner': True, 'brunch': None, 'breakfast': None}","WheelchairAccessible":"True","RestaurantsTakeOut":"True","Caters":"True","RestaurantsDelivery":"False","BikeParking":"True","RestaurantsTableService":"True","RestaurantsPriceRange2":"2","HasTV":"True","Alcohol":"u'full_bar'","RestaurantsReservations":"True","BusinessParking":"{u'valet': False, u'garage': None, u'street': True, u'lot': False, u'validated': None}","WiFi":"u'free'","BusinessAcceptsCreditCards":"True","BYOB":"False","DogsAllowed":"False","OutdoorSeating":"True","HappyHour":"True","Ambience":"{u'divey': None, u'hipster': None, u'casual': True, u'touristy': False, u'trendy': True, u'intimate': False, u'romantic': None, u'classy': None, u'upscale': False}"},"categories":"Tacos, Restaurants, Tapas Bars, Mexican, Nightlife, Bars, Cocktail Bars","hours":{"Tuesday":"11:30-21:0","Wednesday":"11:30-21:0","Thursday":"11:30-21:0","Friday":"11:30-22:0","Saturday":"16:0-22:0"}}
{"business_id":"ox3tHL6pYBqCFbVuFjYoLA","name":"Ambiance Nail Salon and Spa","address":"2201 E Butler Ave","city":"Philadelphia","state":"PA","postal_code":"19137","latitude":39.9987553,"longitude":-75.0945785,"stars":3.5,"review_count":18,"is_open":1,"attributes":{"RestaurantsPriceRange2":"2","BusinessParking":"{'garage': False, 'street': False, 'validated': False, 'lot': False, 'valet': False}","BusinessAcceptsCreditCards":"True","ByAppointmentOnly":"False","BikeParking":"False"},"categories":"Beauty & Spas, Eyelash Service, Nail Salons","hours":{"Monday":"9:30-20:0","Tuesday":"9:30-20:0","Wednesday":"9:30-20:0","Thursday":"9:30-20:0","Friday":"9:30-20:0","Saturday":"9:0-19:0","Sunday":"11:0-17:0"}}
{"business_id":"IZ552dHRYp5AZac5zma6vg","name":"The Container Store","address":"2121 Green Hills Village Dr","city":"Nashville","state":"TN","postal_code":"37215","latitude":36.1077289,"longitude":-86.8145888,"stars":3.5,"review_count":29,"is_open":1,"attributes":{"BusinessAcceptsCreditCards":"True","BusinessParking":"{'garage': True, 'street': False, 'validated': False, 'lot': True, 'valet': False}","BikeParking":"True","WheelchairAccessible":"True","RestaurantsPriceRange2":"3","DogsAllowed":"True"},"categories":"Department Stores, Shopping, Fashion, Home Services, Interior Design, Home Organization, Home & Garden","hours":{"Monday":"10:0-19:0","Tuesday":"10:0-19:0","Wednesday":"10:0-19:0","Thursday":"10:0-19:0","Friday":"10:0-19:0","Saturday":"10:0-19:0","Sunday":"12:0-18:0"}}
{"business_id":"8OPE0UaZHf7vdYkgbIj8vg","name":"Fox and Hound English Pub and Grille","address":"4901 E 82nd St, Ste 900","city":"Indianapolis","state":"IN","postal_code":"46250","latitude":39.9042469,"longitude":-86.0879715,"stars":3.0,"review_count":65,"is_open":0,"attributes":{"RestaurantsTakeOut":"True","RestaurantsDelivery":"False","OutdoorSeating":"True","BusinessAcceptsCreditCards":"True","RestaurantsAttire":"u'casual'","Alcohol":"u'full_bar'","RestaurantsGoodForGroups":"True","GoodForKids":"False","RestaurantsPriceRange2":"2","NoiseLevel":"u'loud'","Ambience":"{'romantic': False, 'intimate': False, 'touristy': False, 'hipster': False, 'divey': False, 'classy': False, 'trendy': False, 'upscale': False, 'casual': True}","WiFi":"u'free'","BusinessParking":"{'garage': False, 'street': False, 'validated': False, 'lot': True, 'valet': False}","RestaurantsReservations":"True","HasTV":"True","BikeParking":"False","Caters":"False","HappyHour":"True"},"categories":"American (New), Nightlife, Bars, Restaurants, Pubs","hours":{"Monday":"11:0-2:0","Tuesday":"11:0-2:0","Wednesday":"11:0-2:0","Thursday":"11:0-2:0","Friday":"11:0-2:0","Saturday":"11:0-2:0","Sunday":"11:0-2:0"}}
{"business_id":"gABEjWGwhojrub_tXqE2uw","name":"Global Quesadilla Company","address":"189 Lamp & Lantern Village","city":"Chesterfield","state":"MO","postal_code":"63017","latitude":38.6249339683,"longitude":-90.516998,"stars":3.5,"review_count":146,"is_open":1,"attributes":{"OutdoorSeating":"False","RestaurantsGoodForGroups":"True","RestaurantsReservations":"False","WiFi":"u'no'","Alcohol":"u'none'","GoodForKids":"True","BusinessAcceptsCreditCards":"True","RestaurantsPriceRange2":"1","RestaurantsAttire":"u'casual'","BusinessParking":"{'garage': False, 'street': False, 'validated': False, 'lot': True, 'valet': False}","NoiseLevel":"u'average'","Caters":"True","HasTV":"True","Ambience":"{'romantic': False, 'intimate': False, 'touristy': False, 'hipster': False, 'divey': False, 'classy': False, 'trendy': False, 'upscale': False, 'casual': True}","RestaurantsTakeOut":"True","RestaurantsDelivery":"True","GoodForMeal":"{'dessert': False, 'latenight': False, 'lunch': True, 'dinner': True, 'brunch': False, 'breakfast': False}","BikeParking":"True"},"categories":"American (New), Restaurants","hours":{"Monday":"10:0-22:0","Tuesday":"10:0-22:0","Wednesday":"10:0-22:0","Thursday":"10:0-22:0","Friday":"10:0-22:0","Saturday":"11:0-22:0","Sunday":"11:0-22:0"}}
{"business_id":"VD2jA3aLp8MfR8BiWWKs0w","name":"Cotoletta","address":"201 Jefferson St","city":"Belmont Hills","state":"PA","postal_code":"19004","latitude":40.0282859912,"longitude":-75.2380639082,"stars":4.5,"review_count":41,"is_open":0,"attributes":{"HasTV":"True","BusinessParking":"{'garage': False, 'street': True, 'validated': False, 'lot': False, 'valet': True}","GoodForKids":"False","NoiseLevel":"u'average'","RestaurantsGoodForGroups":"True","WiFi":"u'free'","RestaurantsReservations":"True","Caters":"True","RestaurantsTakeOut":"True","Alcohol":"u'none'","WheelchairAccessible":"True","BusinessAcceptsCreditCards":"True","RestaurantsAttire":"u'casual'","BikeParking":"True","RestaurantsDelivery":"False","BusinessAcceptsBitcoin":"False","Ambience":"{'touristy': False, 'hipster': False, 'romantic': False, 'divey': False, 'intimate': False, 'trendy': False, 'upscale': False, 'classy': True, 'casual': True}","RestaurantsPriceRange2":"2","GoodForMeal":"{'dessert': False, 'latenight': False, 'lunch': False, 'dinner': True, 'brunch': False, 'breakfast': False}","OutdoorSeating":"False","DogsAllowed":"False","RestaurantsTableService":"True"},"categories":"Salad, Italian, Restaurants, Seafood, Pizza","hours":{"Monday":"0:0-0:0","Wednesday":"17:0-21:0","Thursday":"17:0-21:0","Friday":"17:0-22:0","Saturday":"17:0-22:0","Sunday":"17:0-21:0"}}
{"business_id":"M6iQIunhqZ_yKyvlmMDukA","name":"Broadstone Clearwater","address":"2168 Druid Rd","city":"Clearwater","state":"FL","postal_code":"33759","latitude":27.9577956,"longitude":-82.7481708,"stars":2.5,"review_count":10,"is_open":0,"attributes":{"ByAppointmentOnly":"False","BusinessAcceptsCreditCards":"True"},"categories":"Home Services, Real Estate, Apartments","hours":{"Monday":"9:0-18:0","Tuesday":"9:0-18:0","Wednesday":"9:0-18:0","Thursday":"9:0-18:0","Friday":"9:0-18:0","Saturday":"10:0-17:0","Sunday":"12:0-17:0"}}
{"business_id":"hFa7UxRZgJDQJ3UBhQsu9A","name":"Piccolina Toscana","address":"1412 N Dupont St","city":"Wilmington","state":"DE","postal_code":"19806","latitude":39.756618,"longitude":-75.5627341865,"stars":3.5,"review_count":99,"is_open":1,"attributes":{"RestaurantsPriceRange2":"2","RestaurantsReservations":"True","RestaurantsGoodForGroups":"True","BusinessAcceptsCreditCards":"True","RestaurantsAttire":"u'casual'","Caters":"True","GoodForKids":"True","NoiseLevel":"u'average'","BusinessParking":"{'garage': False, 'street': False, 'validated': False, 'lot': True, 'valet': False}","BikeParking":"True","Alcohol":"'full_bar'","OutdoorSeating":"True","RestaurantsDelivery":"True","GoodForDancing":"False","CoatCheck":"True","WiFi":"u'free'","RestaurantsTakeOut":"True","Music":"{'dj': False, 'background_music': False, 'no_music': False, 'jukebox': False, 'live': False, 'video': False, 'karaoke': False}","Ambience":"{'touristy': False, 'hipster': False, 'romantic': False, 'divey': False, 'intimate': False, 'trendy': False, 'upscale': False, 'classy': True, 'casual': False}","HasTV":"True","GoodForMeal":"{u'breakfast': False, u'brunch': False, u'lunch': None, u'dinner': True, u'latenight': None, u'dessert': None}","BestNights":"{u'monday': False, u'tuesday': False, u'wednesday': False, u'thursday': False, u'friday': False, u'saturday': False, u'sunday': False}","HappyHour":"True"},"categories":"Restaurants, Italian, Nightlife, Bars","hours":{"Monday":"17:0-20:0","Tuesday":"17:0-20:0","Wednesday":"17:0-20:0","Thursday":"17:0-0:0","Friday":"17:0-0:0","Saturday":"17:0-0:0"}}
{"business_id":"PE5-eg3xvGDoCN1Ikh2rGA","name":"Barbara Anne's Downtown Cafe","address":"122 N Delsea Dr","city":"Clayton","state":"NJ","postal_code":"08312","latitude":39.6566893,"longitude":-75.0916421,"stars":3.0,"review_count":16,"is_open":0,"attributes":{"RestaurantsGoodForGroups":"True","WiFi":"u'free'","RestaurantsAttire":"u'casual'","Caters":"True","Ambience":"{'romantic': False, 'intimate': False, 'classy': False, 'hipster': False, 'divey': False, 'touristy': False, 'trendy': False, 'upscale': False, 'casual': False}","OutdoorSeating":"True","RestaurantsTakeOut":"True","RestaurantsPriceRange2":"1","BusinessAcceptsCreditCards":"True","BusinessParking":"{'garage': False, 'street': True, 'validated': False, 'lot': False, 'valet': False}","BikeParking":"True","GoodForKids":"True","RestaurantsReservations":"False","RestaurantsDelivery":"False","Alcohol":"u'none'","HasTV":"False"},"categories":"Breakfast & Brunch, Restaurants, Cafes","hours":{"Monday":"6:0-14:0","Tuesday":"6:0-14:0","Wednesday":"6:0-14:0","Thursday":"6:0-14:0","Friday":"6:0-14:0","Saturday":"7:0-14:0","Sunday":"7:0-14:0"}}
{"business_id":"WRSUURl5C9bQd-uoutOVVg","name":"Fat Bottom Brewing","address":"800 44th Ave N","city":"Nashville","state":"TN","postal_code":"37209","latitude":36.157153,"longitude":-86.8394228,"stars":4.0,"review_count":254,"is_open":1,"attributes":{"Alcohol":"u'full_bar'","OutdoorSeating":"True","RestaurantsAttire":"u'casual'","RestaurantsGoodForGroups":"True","RestaurantsDelivery":"False","WiFi":"u'free'","Ambience":"{'touristy': False, 'hipster': False, 'romantic': False, 'divey': False, 'intimate': False, 'trendy': True, 'upscale': False, 'classy': False, 'casual': True}","BusinessAcceptsCreditCards":"True","HasTV":"True","RestaurantsTakeOut":"True","NoiseLevel":"u'average'","Caters":"False","GoodForDancing":"False","BestNights":"{'monday': False, 'tuesday': False, 'friday': True, 'wednesday': False, 'thursday': True, 'sunday': False, 'saturday': True}","RestaurantsPriceRange2":"2","Music":"{'dj': False, 'background_music': False, 'no_music': False, 'jukebox': False, 'live': False, 'video': False, 'karaoke': False}","DogsAllowed":"True","HappyHour":"True","GoodForKids":"True","GoodForMeal":"{'dessert': False, 'latenight': False, 'lunch': False, 'dinner': True, 'brunch': False, 'breakfast': False}","RestaurantsReservations":"True","ByAppointmentOnly":"False","BusinessAcceptsBitcoin":"False","BikeParking":"False","WheelchairAccessible":"True","BusinessParking":"{'garage': False, 'street': True, 'validated': False, 'lot': True, 'valet': False}"},"categories":"Bars, Tapas Bars, Nightlife, Local Flavor, Restaurants, Food, Pubs, Beer Gardens, Breakfast & Brunch, American (New), Salad, Breweries, Brewpubs","hours":{"Monday":"0:0-0:0","Tuesday":"16:0-22:0","Wednesday":"16:0-22:0","Thursday":"16:0-22:0","Friday":"11:0-0:0","Saturday":"10:0-0:0","Sunday":"12:0-17:0"}}
{"business_id":"yAwSBNIaS2OaRcwuPTJOoQ","name":"Ms D's Soulfood & BBQ","address":"730 E Chelten Ave","city":"Philadelphia","state":"PA","postal_code":"19144","latitude":40.04493,"longitude":-75.1649769,"stars":2.0,"review_count":5,"is_open":1,"attributes":{"Caters":"False","NoiseLevel":"'very_loud'","RestaurantsGoodForGroups":"False","GoodForKids":"False","RestaurantsPriceRange2":"4","BusinessParking":"{'garage': False, 'street': False, 'validated': False, 'lot': False, 'valet': False}","RestaurantsDelivery":"True","RestaurantsReservations":"False","Alcohol":"'none'","RestaurantsTakeOut":"True","OutdoorSeating":"False","Ambience":"{'romantic': False, 'intimate': False, 'classy': False, 'hipster': False, 'divey': False, 'touristy': False, 'trendy': False, 'upscale': False, 'casual': False}","WiFi":"'no'","HasTV":"True"},"categories":"Food, Barbeque, Restaurants, Soul Food","hours":null}
{"business_id":"z4sNgoL5QRElS1JwAFewWw","name":"Philly Kids Gym","address":"610 S Percy St","city":"Philadelphia","state":"PA","postal_code":"19147","latitude":39.942313,"longitude":-75.1578059,"stars":2.5,"review_count":5,"is_open":0,"attributes":{"GoodForKids":"True","BusinessParking":"{'garage': False, 'street': False, 'validated': False, 'lot': False, 'valet': False}"},"categories":"Active Life, Education, Preschools, Local Services, Gyms, Fitness & Instruction, Child Care & Day Care","hours":{"Monday":"7:30-18:0","Tuesday":"7:30-18:0","Wednesday":"7:30-18:0","Thursday":"7:30-18:0","Friday":"7:30-18:0","Saturday":"9:0-18:0","Sunday":"10:0-18:0"}}
{"business_id":"jmXrmPfM_X0dm-9OU8pUKg","name":"Glory Days Grill","address":"16553 Pointe Village Dr","city":"Lutz","state":"FL","postal_code":"33558","latitude":28.1901232,"longitude":-82.5405111,"stars":3.5,"review_count":190,"is_open":1,"attributes":{"RestaurantsTableService":"True","RestaurantsPriceRange2":"2","HappyHour":"True","RestaurantsAttire":"'casual'","Caters":"True","BikeParking":"True","RestaurantsGoodForGroups":"True","DogsAllowed":"False","Alcohol":"'full_bar'","WiFi":"'free'","HasTV":"True","GoodForKids":"True","BusinessParking":"{'garage': False, 'street': False, 'validated': False, 'lot': True, 'valet': False}","RestaurantsTakeOut":"True","GoodForMeal":"{'dessert': None, 'latenight': None, 'lunch': True, 'dinner': True, 'brunch': None, 'breakfast': None}","BusinessAcceptsCreditCards":"True","CoatCheck":"False","RestaurantsReservations":"False","BestNights":"{'monday': False, 'tuesday': False, 'friday': True, 'wednesday': False, 'thursday': False, 'sunday': True, 'saturday': True}","RestaurantsDelivery":"True","Music":"{'dj': None, 'background_music': False, 'no_music': False, 'jukebox': False, 'live': False, 'video': False, 'karaoke': None}","OutdoorSeating":"True","NoiseLevel":"u'average'","GoodForDancing":"False","Ambience":"{'touristy': False, 'hipster': False, 'romantic': False, 'divey': False, 'intimate': False, 'trendy': None, 'upscale': False, 'classy': False, 'casual': True}"},"categories":"American (Traditional), Sports Bars, Nightlife, Chicken Wings, Bars, Restaurants","hours":{"Monday":"11:0-23:0","Tuesday":"11:0-23:0","Wednesday":"11:0-23:0","Thursday":"11:0-23:0","Friday":"11:0-0:0","Saturday":"11:0-0:0","Sunday":"11:0-23:0"}}
{"business_id":"bnY1-1e0XdPz6zTrG5dacA","name":"McDonald's","address":"14932 111th Avenue NW","city":"Edmonton","state":"AB","postal_code":"T5M 2P7","latitude":53.5592593101,"longitude":-113.5786313286,"stars":2.0,"review_count":12,"is_open":1,"attributes":{"Alcohol":"u'none'","RestaurantsTakeOut":"True","Caters":"False","RestaurantsReservations":"False","RestaurantsPriceRange2":"1","GoodForKids":"True","RestaurantsGoodForGroups":"True","NoiseLevel":"u'quiet'","RestaurantsAttire":"u'casual'","WiFi":"'free'","OutdoorSeating":"True","BikeParking":"True","HasTV":"True","Ambience":"{'romantic': False, 'intimate': False, 'classy': False, 'hipster': False, 'divey': False, 'touristy': False, 'trendy': False, 'upscale': False, 'casual': True}","BusinessParking":"{'garage': False, 'street': False, 'validated': False, 'lot': True, 'valet': False}","BusinessAcceptsCreditCards":"True","RestaurantsDelivery":"True"},"categories":"Burgers, Restaurants, Coffee & Tea, Food, Fast Food","hours":{"Monday":"5:0-0:0","Tuesday":"5:0-0:0","Wednesday":"5:0-0:0","Thursday":"5:0-0:0","Friday":"5:0-0:0","Saturday":"0:0-0:0","Sunday":"0:0-0:0"}}
{"business_id":"wGXU3-7HlhGMDKMVfrzFAA","name":"Arby's","address":"9418 Natural Bridge Rd","city":"Saint Louis","state":"MO","postal_code":"63134","latitude":38.725304,"longitude":-90.3391916,"stars":2.0,"review_count":12,"is_open":0,"attributes":{"RestaurantsGoodForGroups":"True","RestaurantsReservations":"False","RestaurantsDelivery":"False","RestaurantsTakeOut":"True","RestaurantsPriceRange2":"1","Ambience":"{'touristy': False, 'hipster': False, 'romantic': False, 'divey': False, 'intimate': False, 'trendy': False, 'upscale': False, 'classy': False, 'casual': False}","RestaurantsAttire":"'casual'","BikeParking":"False","OutdoorSeating":"False","BusinessAcceptsCreditCards":"True","BusinessParking":"{'garage': False, 'street': False, 'validated': False, 'lot': False, 'valet': False}","GoodForKids":"True"},"categories":"Restaurants, Sandwiches, Fast Food","hours":null}
{"business_id":"SICdtxh-1DDOnSFJZlUxGw","name":"Taste of Mogul","address":"2226 Cottman Ave","city":"Philadelphia","state":"PA","postal_code":"19149","latitude":40.048274,"longitude":-75.061865,"stars":3.5,"review_count":5,"is_open":0,"attributes":{"RestaurantsTakeOut":"True","RestaurantsGoodForGroups":"True","GoodForKids":"True","OutdoorSeating":"False","RestaurantsPriceRange2":"2","BusinessParking":"{'garage': False, 'street': True, 'validated': False, 'lot': False, 'valet': False}","RestaurantsAttire":"u'casual'","BusinessAcceptsCreditCards":"True"},"categories":"Indian, Restaurants","hours":null}
{"business_id":"-Or44IdY51Ukd618kikmtA","name":"Federal Donuts","address":"701 N Seventh St","city":"Philadelphia","state":"PA","postal_code":"19123","latitude":39.9641791314,"longitude":-75.1494241306,"stars":4.0,"review_count":321,"is_open":1,"attributes":{"RestaurantsAttire":"'casual'","RestaurantsReservations":"False","GoodForKids":"True","Alcohol":"'none'","RestaurantsGoodForGroups":"True","RestaurantsTakeOut":"True","RestaurantsTableService":"False","NoiseLevel":"'average'","RestaurantsPriceRange2":"1","BikeParking":"True","BusinessAcceptsCreditCards":"True","BusinessParking":"{'garage': False, 'street': True, 'validated': False, 'lot': True, 'valet': False}","OutdoorSeating":"True","GoodForMeal":"{'dessert': False, 'latenight': False, 'lunch': True, 'dinner': False, 'brunch': False, 'breakfast': True}","DogsAllowed":"False","HasTV":"True","Ambience":"{'touristy': False, 'hipster': True, 'romantic': False, 'divey': False, 'intimate': False, 'trendy': False, 'upscale': False, 'classy': False, 'casual': True}","RestaurantsDelivery":"True","Caters":"True","WiFi":"'free'","HappyHour":"False"},"categories":"Restaurants, Donuts, Chicken Wings, Food, Coffee & Tea","hours":{"Monday":"8:0-18:0","Tuesday":"8:0-18:0","Wednesday":"8:0-18:0","Thursday":"8:0-18:0","Friday":"8:0-18:0","Saturday":"8:0-18:0","Sunday":"8:0-18:0"}}
{"business_id":"umq4JEgX4U6TIdMv-odD0Q","name":"Willies Chicken Shack","address":"911 Decatur St","city":"New Orleans","state":"LA","postal_code":"70116","latitude":29.9586364,"longitude":-90.061357,"stars":3.5,"review_count":115,"is_open":1,"attributes":{"RestaurantsDelivery":"False","WheelchairAccessible":"True","HasTV":"True","RestaurantsTableService":"False","BusinessAcceptsCreditCards":"True","RestaurantsGoodForGroups":"True","HappyHour":"True","BusinessParking":"{'garage': False, 'street': True, 'validated': False, 'lot': False, 'valet': False}","RestaurantsReservations":"False","RestaurantsAttire":"'casual'","OutdoorSeating":"False","WiFi":"'no'","NoiseLevel":"'loud'","RestaurantsPriceRange2":"2","RestaurantsTakeOut":"True","Caters":"True","GoodForKids":"True","Ambience":"{u'divey': True, u'hipster': False, u'casual': True, u'touristy': True, u'trendy': False, u'intimate': False, u'romantic': False, u'classy': False, u'upscale': False}","DogsAllowed":"False","Alcohol":"u'full_bar'","BikeParking":"True","GoodForMeal":"{u'breakfast': False, u'brunch': None, u'lunch': True, u'dinner': True, u'latenight': None, u'dessert': False}"},"categories":"Soul Food, Nightlife, Chicken Shop, Restaurants, Chicken Wings, Cajun\/Creole, Bars","hours":{"Monday":"11:0-1:0","Tuesday":"11:0-1:0","Wednesday":"11:0-1:0","Thursday":"11:0-1:0","Friday":"10:0-1:0","Saturday":"10:0-1:0","Sunday":"10:0-1:0"}}
{"business_id":"OTVzS1GQo5Vqy6mP3I8rAA","name":"Rooster's Eatery and Catering","address":"9048 W Emerald St","city":"Boise","state":"ID","postal_code":"83704","latitude":43.611269,"longitude":-116.2946309,"stars":4.5,"review_count":10,"is_open":1,"attributes":{"BusinessAcceptsCreditCards":"True","WheelchairAccessible":"True","RestaurantsDelivery":"False","WiFi":"u'free'","RestaurantsTableService":"False","HasTV":"False","Caters":"True","OutdoorSeating":"False","BikeParking":"True","Alcohol":"u'none'","RestaurantsReservations":"False","RestaurantsTakeOut":"True","BusinessParking":"{'garage': False, 'street': False, 'validated': False, 'lot': True, 'valet': False}","DogsAllowed":"False"},"categories":"Diners, Breakfast & Brunch, Delis, Restaurants, Caterers, Food, Event Planning & Services, Food Trucks","hours":{"Monday":"7:0-15:0","Tuesday":"7:0-15:0","Wednesday":"7:0-15:0","Thursday":"7:0-15:0","Friday":"7:0-15:0","Saturday":"7:0-15:0"}}
{"business_id":"n7msxjzxWVdyhDNDGb8-gQ","name":"Premier Parking","address":"118 7th Ave S","city":"Nashville","state":"TN","postal_code":"37203","latitude":36.1586658,"longitude":-86.7805138,"stars":1.5,"review_count":10,"is_open":1,"attributes":null,"categories":"Automotive, Parking","hours":null}
{"business_id":"pZuuOeFV73a__nyPeDT88g","name":"Parktown Imports","address":"10230 Manchester Rd","city":"Saint Louis","state":"MO","postal_code":"63122","latitude":38.6004549,"longitude":-90.39536,"stars":3.0,"review_count":6,"is_open":0,"attributes":null,"categories":"Car Dealers, Automotive","hours":{"Monday":"9:0-21:0","Tuesday":"9:0-18:0","Wednesday":"9:0-21:0","Thursday":"9:0-18:0","Friday":"9:0-21:0","Saturday":"9:0-17:0"}}
{"business_id":"h7-6ORMUM5wE9Vl7MbDtRw","name":"Edwards Shoe Service","address":"3704 Magazine St","city":"New Orleans","state":"LA","postal_code":"70115","latitude":29.9215945,"longitude":-90.0934615,"stars":2.0,"review_count":23,"is_open":0,"attributes":{"BusinessAcceptsCreditCards":"False"},"categories":"Local Services, Shoe Repair","hours":null}
{"business_id":"Zxzq4lJGorYcwPRcTN8CqQ","name":"The Little Pod","address":"1218 Welsh Rd, Ste A","city":"North Wales","state":"PA","postal_code":"19454","latitude":40.2268168,"longitude":-75.2559921,"stars":4.5,"review_count":33,"is_open":1,"attributes":{"BusinessAcceptsCreditCards":"True","BusinessAcceptsBitcoin":"False","BikeParking":"True","GoodForKids":"True","ByAppointmentOnly":"False","BusinessParking":"{'garage': False, 'street': False, 'validated': False, 'lot': True, 'valet': False}"},"categories":"Active Life, Kids Activities, Arcades, Arts & Entertainment, Party & Event Planning, Event Planning & Services","hours":{"Monday":"9:30-18:0","Tuesday":"9:30-18:0","Wednesday":"9:30-18:0","Thursday":"9:30-18:0","Friday":"9:30-20:0","Saturday":"9:30-17:0","Sunday":"10:0-15:0"}}
{"business_id":"Rx3JSrJyOyBseaJhYrVTSw","name":"Auto Glass Fitters","address":"","city":"Philadelphia","state":"PA","postal_code":"19123","latitude":39.9644541,"longitude":-75.145782,"stars":1.0,"review_count":16,"is_open":1,"attributes":null,"categories":"Automotive, Auto Glass Services","hours":null}
{"business_id":"jnwvVUnLFlUwnflFoRAd6g","name":"Papyrus","address":"819 State St","city":"Santa Barbara","state":"CA","postal_code":"93101","latitude":34.4198015,"longitude":-119.7001905,"stars":4.0,"review_count":5,"is_open":0,"attributes":{"BusinessAcceptsCreditCards":"True","BikeParking":"True","RestaurantsPriceRange2":"2"},"categories":"Event Planning & Services, Cards & Stationery, Shopping, Flowers & Gifts, Arts & Crafts","hours":{"Monday":"10:0-18:0","Tuesday":"10:0-18:0","Wednesday":"10:0-18:0","Thursday":"10:0-21:0","Friday":"10:0-21:0","Saturday":"10:0-20:0","Sunday":"11:0-18:0"}}
{"business_id":"CuTLs5KCpR-6QT5oMVZB-w","name":"Karma Diva Green Cleaning","address":"","city":"Philadelphia","state":"PA","postal_code":"19119","latitude":40.0487466,"longitude":-75.1953934,"stars":3.5,"review_count":8,"is_open":1,"attributes":{"BusinessAcceptsBitcoin":"False","BusinessAcceptsCreditCards":"True","ByAppointmentOnly":"True"},"categories":"Professional Services, Office Cleaning, Home Services, Home Cleaning","hours":{"Monday":"9:0-17:0","Tuesday":"9:0-17:0","Wednesday":"9:0-17:0","Thursday":"9:0-17:0","Friday":"9:0-17:0"}}
{"business_id":"_YfbDxZL55ZagXzebBcPQA","name":"American Apparel","address":"10750 82 Ave NW","city":"Edmonton","state":"AB","postal_code":"T6E 2A8","latitude":53.5183748,"longitude":-113.5083947,"stars":3.5,"review_count":12,"is_open":0,"attributes":{"RestaurantsPriceRange2":"3","BusinessParking":"{'garage': False, 'street': True, 'validated': False, 'lot': False, 'valet': False}","BikeParking":"True"},"categories":"Shopping, Women's Clothing, Men's Clothing, Accessories, Fashion","hours":{"Monday":"10:0-20:0","Tuesday":"10:0-20:0","Wednesday":"10:0-20:0","Thursday":"10:0-20:0","Friday":"10:0-20:0","Saturday":"10:0-20:0","Sunday":"11:0-18:0"}}
{"business_id":"FUWYqbA4T5Ir7HWZbFhCiA","name":"Levine Joseph & Son","address":"2811 W Chester Pike","city":"Broomall","state":"PA","postal_code":"19008","latitude":39.9833357,"longitude":-75.3694098,"stars":3.5,"review_count":5,"is_open":1,"attributes":{"BusinessAcceptsCreditCards":"True"},"categories":"Local Services, Funeral Services & Cemeteries","hours":{"Monday":"0:0-0:0","Tuesday":"0:0-0:0","Wednesday":"0:0-0:0","Thursday":"0:0-0:0","Friday":"0:0-0:0","Saturday":"0:0-0:0","Sunday":"0:0-0:0"}}
{"business_id":"M5Nq0X3qbnafEVrTC5fvCw","name":"CVS Pharmacy","address":"426 21st Ave S","city":"Nashville","state":"TN","postal_code":"37203","latitude":36.145703,"longitude":-86.7994,"stars":3.0,"review_count":26,"is_open":1,"attributes":{"RestaurantsPriceRange2":"2","BusinessAcceptsCreditCards":"True","RestaurantsDelivery":"True","BikeParking":"True","BusinessParking":"{u'valet': False, u'garage': True, u'street': None, u'lot': False, u'validated': False}","DriveThru":"True","RestaurantsTakeOut":"True"},"categories":"Food, Convenience Stores, Health & Medical, Pharmacy, Drugstores, Shopping","hours":{"Monday":"7:0-23:0","Tuesday":"10:0-20:0","Wednesday":"7:0-23:0","Thursday":"7:0-23:0","Friday":"7:0-23:0","Saturday":"7:0-23:0","Sunday":"7:0-23:0"}}
{"business_id":"HAUzjmv7YWHulWLsgdgmIw","name":"Ten Asian Food Hall","address":"1715 Chestnut St","city":"Philadelphia","state":"PA","postal_code":"19103","latitude":39.9516409,"longitude":-75.1693482,"stars":3.5,"review_count":74,"is_open":1,"attributes":{"RestaurantsPriceRange2":"2","OutdoorSeating":"False","HappyHour":"False","RestaurantsDelivery":"True","BusinessParking":"{'garage': None, 'street': None, 'validated': False, 'lot': False, 'valet': False}","RestaurantsReservations":"False","HasTV":"True","BusinessAcceptsCreditCards":"True","RestaurantsGoodForGroups":"True","Ambience":"{'touristy': False, 'hipster': False, 'romantic': False, 'divey': False, 'intimate': False, 'trendy': False, 'upscale': False, 'classy': True, 'casual': False}","Alcohol":"u'none'","WiFi":"u'free'","DogsAllowed":"False","RestaurantsTableService":"False","RestaurantsTakeOut":"True","GoodForMeal":"{'dessert': True, 'latenight': None, 'lunch': None, 'dinner': None, 'brunch': None, 'breakfast': None}"},"categories":"Asian Fusion, Japanese, Restaurants, Ramen, Bubble Tea, Poke, Food","hours":{"Monday":"10:30-21:30","Tuesday":"10:30-21:30","Wednesday":"10:30-21:30","Thursday":"10:30-21:30","Friday":"10:30-21:30","Saturday":"10:30-21:30","Sunday":"10:30-21:30"}}
{"business_id":"8djKEQKQj884xM5VRGqiAA","name":"Donnelly Park","address":"3636-3664 Mayberry Dr","city":"Reno","state":"NV","postal_code":"89509","latitude":39.5061304,"longitude":-119.8569985,"stars":3.5,"review_count":10,"is_open":1,"attributes":{"BusinessParking":"{'garage': False, 'street': False, 'validated': False, 'lot': False, 'valet': False}","BikeParking":"False","GoodForKids":"True"},"categories":"Dog Parks, Active Life, Parks","hours":null}
{"business_id":"wcFfvSUNpFon5BNCaMmeUw","name":"Midas","address":"1820 N Olden Ave","city":"Ewing","state":"NJ","postal_code":"08638","latitude":40.2494678899,"longitude":-74.7728991147,"stars":5.0,"review_count":6,"is_open":1,"attributes":{"BusinessAcceptsCreditCards":"True"},"categories":"Oil Change Stations, Auto Repair, Tires, Automotive","hours":{"Monday":"7:30-18:0","Tuesday":"7:30-18:0","Wednesday":"7:30-18:0","Thursday":"7:30-18:0","Friday":"7:30-18:0","Saturday":"7:30-16:0"}}
{"business_id":"b-49gLY_9W3rRgW-8juz4A","name":"National Property Inspections","address":"","city":"Newtown","state":"PA","postal_code":"18940","latitude":40.2283371,"longitude":-74.9322596,"stars":1.0,"review_count":5,"is_open":1,"attributes":{"BusinessAcceptsCreditCards":"True","ByAppointmentOnly":"True"},"categories":"Property Management, Home Inspectors, Home Services, Real Estate Services, Real Estate","hours":{"Monday":"8:0-20:0","Tuesday":"8:0-20:0","Wednesday":"8:0-20:0","Thursday":"8:0-20:0","Friday":"8:0-20:0","Saturday":"8:0-20:0","Sunday":"8:0-20:0"}}
{"business_id":"ki0qSHmHNgUjKPRzYDTPow","name":"The Pub 2900","address":"2900 Street Rd","city":"Bensalem","state":"PA","postal_code":"19020","latitude":40.1121412,"longitude":-74.9554457,"stars":2.5,"review_count":146,"is_open":0,"attributes":{"BusinessAcceptsCreditCards":"True","GoodForKids":"True","RestaurantsPriceRange2":"2","RestaurantsAttire":"'casual'","BYOBCorkage":"'no'","Alcohol":"u'full_bar'","RestaurantsTakeOut":"True","NoiseLevel":"u'loud'","RestaurantsGoodForGroups":"True","RestaurantsReservations":"False","Ambience":"{'romantic': False, 'intimate': False, 'touristy': False, 'hipster': False, 'divey': False, 'classy': False, 'trendy': False, 'upscale': False, 'casual': True}","WiFi":"'no'","BusinessParking":"{'garage': False, 'street': False, 'validated': False, 'lot': True, 'valet': False}","OutdoorSeating":"False","HasTV":"True","BikeParking":"False","CoatCheck":"False","DriveThru":"False","RestaurantsDelivery":"None","Caters":"True","GoodForMeal":"{'dessert': False, 'latenight': True, 'lunch': False, 'dinner': False, 'brunch': False, 'breakfast': True}","HappyHour":"True"},"categories":"Diners, Bars, Pizza, Burgers, Restaurants, Nightlife, Seafood","hours":{"Monday":"0:0-0:0","Tuesday":"0:0-0:0","Wednesday":"0:0-0:0","Thursday":"0:0-0:0","Friday":"0:0-0:0","Saturday":"0:0-0:0","Sunday":"0:0-0:0"}}
{"business_id":"C7OxQs7Ik0OhMBkLhQBHFw","name":"Doggy Spa","address":"3707 Garrett Rd","city":"Upper Darby","state":"PA","postal_code":"19026","latitude":39.9448059,"longitude":-75.2966877,"stars":4.5,"review_count":22,"is_open":1,"attributes":null,"categories":"Pets, Pet Sitting, Pet Groomers, Pet Services","hours":{"Tuesday":"9:0-18:0","Wednesday":"9:0-18:0","Thursday":"9:0-18:0","Friday":"9:0-18:0","Saturday":"9:0-18:0"}}
{"business_id":"So0_waXjSCDPbRPDem4hzA","name":"Sea Of Glass Center For The Arts","address":"330 E 7th St","city":"Tucson","state":"AZ","postal_code":"85705","latitude":32.2262603,"longitude":-110.9661713,"stars":5.0,"review_count":6,"is_open":1,"attributes":{"GoodForKids":"False","Ambience":"{'touristy': False, 'hipster': False, 'romantic': False, 'divey': False, 'intimate': False, 'trendy': False, 'upscale': False, 'classy': True, 'casual': False}","BusinessAcceptsCreditCards":"True","DogsAllowed":"False","WheelchairAccessible":"True","RestaurantsPriceRange2":"2","BikeParking":"False","Alcohol":"u'beer_and_wine'","WiFi":"u'free'","HappyHour":"False","Music":"{'dj': False, 'background_music': False, 'no_music': False, 'jukebox': False, 'live': True, 'video': False, 'karaoke': False}","OutdoorSeating":"True","HasTV":"False","Smoking":"u'outdoor'","BusinessAcceptsBitcoin":"False","CoatCheck":"False","BusinessParking":"{u'valet': False, u'garage': False, u'street': True, u'lot': True, u'validated': False}"},"categories":"Event Planning & Services, Arts & Entertainment, Venues & Event Spaces, Video\/Film Production, Nightlife, Music Venues, Professional Services, Cultural Center","hours":{"Monday":"6:0-0:0","Tuesday":"6:0-0:0","Wednesday":"6:0-0:0","Thursday":"6:0-0:0","Friday":"6:0-0:0","Saturday":"6:0-0:0","Sunday":"6:0-0:0"}}
{"business_id":"jk8SnYWE1hHaFdFyCd897Q","name":"Payless Car Rental","address":"1 Terminal Dr","city":"Nashville","state":"TN","postal_code":"37214","latitude":36.1301105,"longitude":-86.6697062,"stars":1.0,"review_count":28,"is_open":1,"attributes":null,"categories":"Hotels & Travel, Car Rental","hours":null}
{"business_id":"gf0hWSKB38InSJBKioqKrQ","name":"The Northgate Reel Theatre","address":"6950 W State St","city":"Boise","state":"ID","postal_code":"83714","latitude":43.6672157,"longitude":-116.2749716,"stars":4.5,"review_count":22,"is_open":1,"attributes":{"GoodForKids":"True","WiFi":"u'no'","DogsAllowed":"False","Alcohol":"u'none'"},"categories":"Arts & Entertainment, Cinema","hours":{"Monday":"11:30-23:0","Tuesday":"11:30-23:0","Wednesday":"11:30-23:0","Thursday":"11:30-23:0","Friday":"11:30-23:0","Saturday":"11:30-23:0","Sunday":"11:30-23:0"}}
{"business_id":"vGI9jBE-byff530KPdTD-g","name":"SS Salon & Boutique","address":"2108 Caldwell Blvd, Ste 125","city":"Nampa","state":"ID","postal_code":"83651","latitude":43.6086,"longitude":-116.285881,"stars":3.0,"review_count":13,"is_open":0,"attributes":{"GoodForKids":"True","BusinessParking":"{'garage': False, 'street': False, 'validated': False, 'lot': True, 'valet': False}","ByAppointmentOnly":"False","BusinessAcceptsCreditCards":"True","BikeParking":"True","RestaurantsPriceRange2":"2","BusinessAcceptsBitcoin":"False"},"categories":"Nail Salons, Beauty & Spas, Tanning, Eyelash Service, Barbers, Hair Extensions, Day Spas, Hair Salons","hours":{"Tuesday":"9:0-20:0","Wednesday":"9:0-20:0","Thursday":"9:0-20:0","Friday":"9:0-20:0","Saturday":"9:0-16:0"}}
{"business_id":"LX54b4gi8X_-YREOL3OccQ","name":"Our Lady of Guadalupe Chapel","address":"411 N Rampart St","city":"New Orleans","state":"LA","postal_code":"70112","latitude":29.9585194,"longitude":-90.0704609,"stars":5.0,"review_count":5,"is_open":1,"attributes":null,"categories":"Landmarks & Historical Buildings, Religious Organizations, Public Services & Government, Churches","hours":null}
{"business_id":"zEs2XsSVdAvyjaTXhmG5Qw","name":"Whole Body","address":"4021 Hillsboro Pike","city":"Nashville","state":"TN","postal_code":"37215","latitude":36.1031403,"longitude":-86.8187272,"stars":4.0,"review_count":24,"is_open":1,"attributes":{"BusinessParking":"{'garage': True, 'street': False, 'validated': False, 'lot': False, 'valet': False}","BikeParking":"True","ByAppointmentOnly":"False","RestaurantsPriceRange2":"2","BusinessAcceptsCreditCards":"True"},"categories":"Beauty & Spas, Women's Clothing, Cosmetics & Beauty Supply, Shopping, Fashion","hours":null}
{"business_id":"BhTn5ANsR8LHuQAGsbx39Q","name":"Hot Dog Rod","address":"","city":"Reno","state":"NV","postal_code":"89501","latitude":39.5281876191,"longitude":-119.8128092576,"stars":4.5,"review_count":5,"is_open":1,"attributes":{"RestaurantsPriceRange2":"1","BusinessAcceptsCreditCards":"True"},"categories":"Food Trucks, Food","hours":null}
{"business_id":"jm04iLnGf4sv-_sPRjeEzg","name":"Peticote Veterinary Clinic","address":"221 Newbolds Corner Rd","city":"Southampton","state":"NJ","postal_code":"08088","latitude":39.9516825865,"longitude":-74.762256155,"stars":3.5,"review_count":17,"is_open":1,"attributes":null,"categories":"Veterinarians, Pets","hours":null}
{"business_id":"QFqHy_SUssxq1IpvkpovEw","name":"Bossanova Restaurant and Lounge","address":"112 W 3rd St","city":"Alton","state":"IL","postal_code":"62002","latitude":38.8913849,"longitude":-90.1871724,"stars":4.0,"review_count":57,"is_open":1,"attributes":{"OutdoorSeating":"True","RestaurantsTakeOut":"True","Alcohol":"u'full_bar'","RestaurantsGoodForGroups":"True","BusinessAcceptsCreditCards":"True","WiFi":"'no'","Caters":"False","HasTV":"True","RestaurantsDelivery":"False","RestaurantsReservations":"False","RestaurantsPriceRange2":"2","NoiseLevel":"u'average'","BikeParking":"True","GoodForKids":"False","BusinessParking":"{'garage': False, 'street': True, 'validated': False, 'lot': False, 'valet': False}","BestNights":"{'monday': True, 'tuesday': False, 'friday': False, 'wednesday': True, 'thursday': False, 'sunday': False, 'saturday': True}","Ambience":"{'touristy': False, 'hipster': False, 'romantic': True, 'divey': False, 'intimate': False, 'trendy': False, 'upscale': False, 'classy': True, 'casual': False}","RestaurantsAttire":"'casual'","Music":"{'dj': False, 'background_music': False, 'no_music': False, 'jukebox': False, 'live': False, 'video': False, 'karaoke': False}","GoodForMeal":"{'dessert': False, 'latenight': False, 'lunch': False, 'dinner': False, 'brunch': False, 'breakfast': False}"},"categories":"Lounges, Restaurants, Nightlife, American (New), Bars","hours":{"Monday":"16:0-2:0","Tuesday":"16:0-2:0","Wednesday":"16:0-2:0","Thursday":"16:0-2:0","Friday":"16:0-3:0","Saturday":"16:0-3:0","Sunday":"17:0-2:0"}}
{"business_id":"Gay6ZhRBF8SNF5YudevDoQ","name":"Brown Betty Dessert Boutique","address":"722 N 2nd St","city":"Philadelphia","state":"PA","postal_code":"19123","latitude":39.9626107,"longitude":-75.1412997,"stars":4.0,"review_count":173,"is_open":0,"attributes":{"RestaurantsPriceRange2":"2","BusinessAcceptsCreditCards":"True","BikeParking":"True","BusinessParking":"{'garage': False, 'street': True, 'validated': False, 'lot': False, 'valet': False}","RestaurantsTakeOut":"True","RestaurantsDelivery":"False"},"categories":"Food, Desserts, Cupcakes, Bakeries","hours":{"Tuesday":"12:0-19:0","Wednesday":"12:0-19:0","Thursday":"12:0-19:0","Friday":"12:0-19:0","Saturday":"12:0-19:0","Sunday":"11:0-16:0"}}
{"business_id":"9ULVQhqw1ZwQxkKJwxaCVA","name":"Lily Pads Frozen Yogurt","address":"3130 Willits Rd","city":"Philadelphia","state":"PA","postal_code":"19136","latitude":40.0576691912,"longitude":-75.015246183,"stars":4.0,"review_count":5,"is_open":0,"attributes":{"WiFi":"u'no'","BusinessParking":"{'garage': False, 'street': True, 'validated': False, 'lot': False, 'valet': False}","RestaurantsPriceRange2":"2","BikeParking":"True","BusinessAcceptsCreditCards":"True","RestaurantsTakeOut":"True"},"categories":"Food, Ice Cream & Frozen Yogurt","hours":{"Monday":"12:0-20:0","Tuesday":"12:0-20:0","Wednesday":"12:0-20:0","Thursday":"12:0-20:0","Friday":"12:0-20:0","Saturday":"12:0-21:0","Sunday":"12:0-18:0"}}
{"business_id":"Xrvmepg4hVZu3TTT9aV26g","name":"Wendy's","address":"1450 W. Morris Street","city":"Indianapolis","state":"IN","postal_code":"46221","latitude":39.7518683,"longitude":-86.1866188,"stars":3.5,"review_count":10,"is_open":1,"attributes":{"BusinessAcceptsCreditCards":"True","RestaurantsTakeOut":"True","RestaurantsGoodForGroups":"True","RestaurantsReservations":"False","DriveThru":"True","Ambience":"{'touristy': False, 'hipster': False, 'romantic': False, 'divey': False, 'intimate': False, 'trendy': False, 'upscale': False, 'classy': False, 'casual': False}","RestaurantsAttire":"'casual'","RestaurantsDelivery":"True","RestaurantsPriceRange2":"1","GoodForKids":"True","OutdoorSeating":"False","HasTV":"True"},"categories":"Restaurants, Fast Food, Burgers","hours":{"Monday":"10:0-0:0","Tuesday":"10:0-0:0","Wednesday":"10:0-0:0","Thursday":"10:0-0:0","Friday":"10:0-0:0","Saturday":"10:0-0:0","Sunday":"10:0-0:0"}}
{"business_id":"IpbAyoLSDSfqAGnwpBJsvg","name":"Funland Express Party Rentals","address":"702 W Irvington Rd","city":"Tucson","state":"AZ","postal_code":"85714","latitude":32.1635543,"longitude":-110.9795595,"stars":1.5,"review_count":19,"is_open":1,"attributes":{"BusinessAcceptsCreditCards":"True"},"categories":"Party & Event Planning, DJs, Event Planning & Services, Party Supplies","hours":{"Monday":"10:0-22:0","Tuesday":"10:0-22:0","Wednesday":"10:0-22:0","Thursday":"10:0-22:0","Friday":"10:0-22:0","Saturday":"10:0-22:0","Sunday":"10:0-22:0"}}
{"business_id":"oIrXXzFtDTkFEnOagyK2zg","name":"A Proper Fit Footwear","address":"4001 S Virginia St, Ste 5","city":"Reno","state":"NV","postal_code":"89502","latitude":39.4861879649,"longitude":-119.7954375,"stars":4.0,"review_count":36,"is_open":1,"attributes":{"BikeParking":"True","BusinessAcceptsCreditCards":"True","BusinessParking":"{'garage': False, 'street': False, 'validated': False, 'lot': True, 'valet': False}","RestaurantsPriceRange2":"3"},"categories":"Fashion, Shoe Stores, Shopping","hours":{"Monday":"10:0-18:0","Tuesday":"10:0-18:0","Wednesday":"10:0-18:0","Thursday":"10:0-18:0","Friday":"10:0-18:0","Saturday":"10:0-18:0"}}
{"business_id":"n2hw1INXdgkiJ6PTgmW3rw","name":"Kurlykoils","address":"4151 Boulevard Pl","city":"Indianapolis","state":"IN","postal_code":"46208","latitude":39.8319011,"longitude":-86.1637902,"stars":4.5,"review_count":26,"is_open":1,"attributes":{"BikeParking":"True","ByAppointmentOnly":"True","HairSpecializesIn":"{'straightperms': False, 'coloring': True, 'extensions': False, 'africanamerican': True, 'curly': True, 'kids': True, 'perms': False, 'asian': False}","BusinessAcceptsBitcoin":"False","WiFi":"u'free'","BusinessAcceptsCreditCards":"True","WheelchairAccessible":"True","BusinessParking":"{'garage': False, 'street': True, 'validated': False, 'lot': False, 'valet': False}"},"categories":"Kids Hair Salons, Hair Stylists, Beauty & Spas, Hair Salons","hours":{"Tuesday":"12:0-18:0","Wednesday":"12:0-18:0","Thursday":"10:0-18:0","Friday":"9:0-18:0","Saturday":"9:0-16:0","Sunday":"11:0-17:0"}}
{"business_id":"2yf8vIDgZJpEX5MeLoyqpQ","name":"West Bank Marrero Cab","address":"740 Milton St","city":"Gretna","state":"LA","postal_code":"70053","latitude":29.9206915,"longitude":-90.0498291,"stars":2.0,"review_count":23,"is_open":1,"attributes":{"BusinessAcceptsCreditCards":"True"},"categories":"Hotels & Travel, Airport Shuttles, Local Services, Couriers & Delivery Services, Transportation, Taxis","hours":{"Monday":"0:0-0:0","Tuesday":"0:0-0:0","Wednesday":"0:0-0:0","Thursday":"0:0-0:0","Friday":"0:0-0:0","Saturday":"0:0-0:0","Sunday":"0:0-0:0"}}
{"business_id":"sU8a8ExH_pYw1vTyuBZLaA","name":"Dynasty Chinese Restaurant","address":"647 Big Bend Rd","city":"Ballwin","state":"MO","postal_code":"63021","latitude":38.5691327,"longitude":-90.5228407,"stars":2.5,"review_count":23,"is_open":1,"attributes":{"RestaurantsTakeOut":"True","Ambience":"{'touristy': False, 'hipster': False, 'romantic': False, 'divey': False, 'intimate': False, 'trendy': False, 'upscale': False, 'classy': False, 'casual': False}","OutdoorSeating":"False","NoiseLevel":"'average'","RestaurantsReservations":"False","BusinessParking":"{'garage': False, 'street': False, 'validated': False, 'lot': False, 'valet': False}","RestaurantsTableService":"False","RestaurantsGoodForGroups":"True","WiFi":"'no'","BikeParking":"False","GoodForKids":"True","BusinessAcceptsCreditCards":"False","RestaurantsDelivery":"True","RestaurantsAttire":"'casual'","HasTV":"True","Alcohol":"'none'"},"categories":"Chinese, Restaurants","hours":{"Monday":"11:0-21:0","Tuesday":"11:0-21:0","Wednesday":"11:0-21:0","Thursday":"11:0-22:0","Friday":"11:0-22:0","Saturday":"11:0-22:0","Sunday":"11:0-21:0"}}
{"business_id":"7TkgWz7fLbMBjkS_RTTOIg","name":"Nayak Plastic Surgery","address":"607 South Lindbergh Blvd","city":"Saint Louis","state":"MO","postal_code":"63131","latitude":38.6453188,"longitude":-90.4059652,"stars":4.5,"review_count":29,"is_open":1,"attributes":{"ByAppointmentOnly":"True","BusinessAcceptsCreditCards":"True"},"categories":"Doctors, Cosmetic Surgeons, Plastic Surgeons, Health & Medical","hours":{"Monday":"0:0-0:0","Tuesday":"8:0-19:0","Wednesday":"8:0-17:0","Thursday":"8:0-19:0","Friday":"8:0-16:0","Saturday":"8:0-16:0"}}
{"business_id":"uf5vJ-pWeoNWsQB7_rbW2w","name":"Gallatin Smiles Dentistry","address":"923 Nashville Pike, Ste A","city":"Gallatin","state":"TN","postal_code":"37066","latitude":36.3768295,"longitude":-86.4697469,"stars":4.5,"review_count":7,"is_open":1,"attributes":{"AcceptsInsurance":"True","ByAppointmentOnly":"True","BusinessAcceptsCreditCards":"True"},"categories":"General Dentistry, Dentists, Cosmetic Dentists, Oral Surgeons, Health & Medical","hours":{"Monday":"0:0-0:0","Tuesday":"8:30-17:0","Wednesday":"10:30-19:0","Thursday":"8:30-17:0","Friday":"7:30-16:0"}}
{"business_id":"3ZS6YO_Ip-fGPHZUAlW-cA","name":"North Valleys Library","address":"1075 N Hills Blvd, Ste 340","city":"Reno","state":"NV","postal_code":"89506","latitude":39.605509,"longitude":-119.8397515,"stars":3.5,"review_count":8,"is_open":1,"attributes":{"WiFi":"'free'"},"categories":"Public Services & Government, Libraries, Local Services","hours":{"Monday":"10:0-18:0","Tuesday":"10:0-18:0","Wednesday":"10:0-19:0","Thursday":"10:0-18:0","Friday":"10:0-18:0","Saturday":"10:0-16:0"}}
{"business_id":"dS6YwOhkFzcb28SeMtG3LQ","name":"Noble Roman's Craft Pizza & Pub","address":"6428 Whitestown Pkwy","city":"Whitestown","state":"IN","postal_code":"46075","latitude":39.949608,"longitude":-86.345954,"stars":3.5,"review_count":84,"is_open":1,"attributes":{"Smoking":"u'no'","GoodForDancing":"False","WiFi":"u'free'","RestaurantsAttire":"'casual'","BusinessParking":"{'garage': False, 'street': False, 'validated': False, 'lot': True, 'valet': False}","GoodForKids":"True","HasTV":"True","Caters":"True","DogsAllowed":"False","RestaurantsTakeOut":"True","BusinessAcceptsCreditCards":"True","WheelchairAccessible":"True","RestaurantsGoodForGroups":"True","RestaurantsTableService":"False","Ambience":"{u'divey': None, u'hipster': None, u'casual': True, u'touristy': False, u'trendy': None, u'intimate': False, u'romantic': False, u'classy': False, u'upscale': False}","RestaurantsPriceRange2":"2","HappyHour":"False","Music":"{'dj': False, 'background_music': False, 'no_music': False, 'jukebox': False, 'live': False, 'video': False, 'karaoke': None}","BestNights":"{'monday': False, 'tuesday': False, 'friday': False, 'wednesday': False, 'thursday': False, 'sunday': False, 'saturday': True}","CoatCheck":"False","OutdoorSeating":"None","RestaurantsDelivery":"True","RestaurantsReservations":"False","BikeParking":"False","NoiseLevel":"'loud'","GoodForMeal":"{'dessert': None, 'latenight': None, 'lunch': True, 'dinner': True, 'brunch': None, 'breakfast': None}","Alcohol":"u'beer_and_wine'"},"categories":"Bars, Nightlife, Pubs, Pizza, Restaurants","hours":{"Monday":"11:0-23:0","Tuesday":"11:0-22:0","Wednesday":"11:0-22:0","Thursday":"11:0-22:0","Friday":"11:0-23:0","Saturday":"11:0-23:0","Sunday":"11:0-22:0"}}
{"business_id":"P1e3IrUPxLhFApd0xMtriw","name":"Burger King","address":"4010 Lakewood Dr","city":"Seffner","state":"FL","postal_code":"33584","latitude":27.9822091,"longitude":-82.3109453,"stars":1.5,"review_count":11,"is_open":1,"attributes":{"RestaurantsTakeOut":"False","BusinessParking":"{'garage': False, 'street': False, 'validated': False, 'lot': True, 'valet': False}","RestaurantsDelivery":"True"},"categories":"Burgers, Restaurants, Fast Food","hours":{"Monday":"5:0-0:0","Tuesday":"5:0-0:0","Wednesday":"5:0-0:0","Thursday":"5:0-0:0","Friday":"5:0-1:0","Saturday":"0:0-0:0","Sunday":"5:0-0:0"}}
{"business_id":"B_ULY8xaOEx4PZxauoSmow","name":"California Mexican Food","address":"10889 W Fairview Ave","city":"Boise","state":"ID","postal_code":"83713","latitude":43.6191396,"longitude":-116.3178746,"stars":3.5,"review_count":122,"is_open":1,"attributes":{"RestaurantsTakeOut":"True","RestaurantsTableService":"False","RestaurantsReservations":"False","NoiseLevel":"u'average'","BusinessAcceptsCreditCards":"True","OutdoorSeating":"False","RestaurantsDelivery":"True","RestaurantsPriceRange2":"1","WiFi":"u'free'","Ambience":"{u'divey': False, u'hipster': False, u'casual': True, u'touristy': False, u'trendy': None, u'intimate': False, u'romantic': False, u'classy': False, u'upscale': False}","BusinessParking":"{u'valet': False, u'garage': False, u'street': None, u'lot': True, u'validated': None}"},"categories":"Mexican, Restaurants","hours":{"Monday":"0:0-0:0","Tuesday":"0:0-0:0","Wednesday":"0:0-0:0","Thursday":"0:0-0:0","Friday":"0:0-0:0","Saturday":"0:0-0:0","Sunday":"0:0-0:0"}}
{"business_id":"eQIyzHeRQQYc55Oihq5YPw","name":"Pappy's Crab House","address":"902 E MacDade Blvd","city":"Folsom","state":"PA","postal_code":"19033","latitude":39.880696,"longitude":-75.3396999,"stars":5.0,"review_count":18,"is_open":0,"attributes":{"Caters":"True","NoiseLevel":"u'average'","RestaurantsPriceRange2":"2","RestaurantsGoodForGroups":"True","RestaurantsTakeOut":"True","BusinessParking":"{'garage': False, 'street': False, 'validated': False, 'lot': True, 'valet': False}","Ambience":"{'romantic': False, 'intimate': False, 'touristy': False, 'hipster': False, 'divey': False, 'classy': False, 'trendy': False, 'upscale': False, 'casual': True}","RestaurantsReservations":"True","WiFi":"u'no'","OutdoorSeating":"False","BusinessAcceptsCreditCards":"True","RestaurantsAttire":"u'casual'","GoodForKids":"True","HasTV":"True","Alcohol":"u'none'","RestaurantsDelivery":"True"},"categories":"Restaurants, Seafood","hours":{"Monday":"11:0-21:0","Tuesday":"11:0-21:0","Wednesday":"11:0-21:0","Thursday":"11:0-21:0","Friday":"11:0-23:0","Saturday":"12:0-23:0","Sunday":"12:0-21:0"}}
{"business_id":"f55CXbSB-F8AZXNumZZlcA","name":"Sonny's Phat Smoke","address":"1350 Stardust St","city":"Reno","state":"NV","postal_code":"89503","latitude":39.5282020569,"longitude":-119.8347167969,"stars":4.0,"review_count":11,"is_open":1,"attributes":{"BusinessAcceptsCreditCards":"True","WheelchairAccessible":"True"},"categories":"Shopping, Vape Shops, Head Shops, Tobacco Shops","hours":{"Monday":"9:0-23:0","Tuesday":"9:0-23:0","Wednesday":"9:0-23:0","Thursday":"9:0-23:30","Friday":"9:0-0:0","Saturday":"9:0-0:0","Sunday":"9:0-23:30"}}
{"business_id":"Dw9_RLgP0lb6pA6q0v055g","name":"Causeway Bridge","address":"3943 N Causeway Blvd","city":"Metairie","state":"LA","postal_code":"70002","latitude":30.0199873,"longitude":-90.1541008,"stars":4.0,"review_count":44,"is_open":1,"attributes":null,"categories":"Transportation, Hotels & Travel, Landmarks & Historical Buildings, Public Services & Government","hours":null}
{"business_id":"1vPcNHJZx597rKQKbiPaAQ","name":"U-Haul Moving & Storage of Fairhill","address":"747 W Allegheny Ave","city":"Philadelphia","state":"PA","postal_code":"19133","latitude":40.0010631,"longitude":-75.1433462,"stars":2.0,"review_count":6,"is_open":1,"attributes":{"BusinessAcceptsCreditCards":"True","BusinessAcceptsBitcoin":"False"},"categories":"Automotive, Truck Rental, Self Storage, Movers, Home Services, Local Services, Propane","hours":{"Monday":"7:0-19:0","Tuesday":"7:0-19:0","Wednesday":"7:0-19:0","Thursday":"7:0-19:0","Friday":"7:0-20:0","Saturday":"7:0-19:0","Sunday":"9:0-17:0"}}
{"business_id":"HRZmsTNLtZRBbJUuWjzLTg","name":"Captain D's","address":"1517 Camp Jackson Rd","city":"Cahokia","state":"IL","postal_code":"62206","latitude":38.5545747033,"longitude":-90.1676300168,"stars":3.5,"review_count":7,"is_open":1,"attributes":{"GoodForKids":"True","RestaurantsGoodForGroups":"True","RestaurantsReservations":"False","RestaurantsAttire":"u'casual'","RestaurantsTakeOut":"True","OutdoorSeating":"False","BusinessAcceptsCreditCards":"True","BusinessParking":"{'garage': False, 'street': False, 'validated': False, 'lot': True, 'valet': False}","WheelchairAccessible":"True","Caters":"False","RestaurantsPriceRange2":"1","RestaurantsTableService":"False","Ambience":"{'romantic': False, 'intimate': False, 'touristy': False, 'hipster': False, 'divey': False, 'classy': False, 'trendy': False, 'upscale': False, 'casual': False}","BikeParking":"True","Alcohol":"u'none'","NoiseLevel":"u'average'","HasTV":"True","WiFi":"u'no'","DogsAllowed":"False","RestaurantsDelivery":"True"},"categories":"Fish & Chips, American (Traditional), Restaurants, Seafood, Fast Food","hours":{"Monday":"0:0-0:0","Tuesday":"10:30-21:0","Wednesday":"10:30-21:0","Thursday":"10:30-21:0","Friday":"10:30-18:0","Saturday":"10:30-21:0","Sunday":"10:30-21:0"}}